[{"Name":"Wakoopa","City":"Amsterdam","Latitude":52.3745228,"Longitude":4.8948623,"Coordinates":{"type":"Point","coordinates":[52.3745228,4.8948623]}},{"Name":"Fleck","City":"Amsterdam","Latitude":52.375595,"Longitude":4.908556,"Coordinates":{"type":"Point","coordinates":[52.375595,4.908556]}},{"Name":"Google","City":"Amsterdam","Latitude":52.337495,"Longitude":4.871464,"Coordinates":{"type":"Point","coordinates":[52.337495,4.871464]}},{"Name":"eBuddy","City":"Amsterdam","Latitude":52.3640933,"Longitude":4.8919457,"Coordinates":{"type":"Point","coordinates":[52.3640933,4.8919457]}},{"Name":"GeoSentric","City":"Amsterdam","Latitude":37.09024,"Longitude":-95.712891,"Coordinates":{"type":"Point","coordinates":[37.09024,-95.712891]}},{"Name":"livecastr","City":"Amsterdam","Latitude":52.373812,"Longitude":4.890951,"Coordinates":{"type":"Point","coordinates":[52.373812,4.890951]}},{"Name":"MovingLabs","City":"Amsterdam","Latitude":52.373812,"Longitude":4.890951,"Coordinates":{"type":"Point","coordinates":[52.373812,4.890951]}},{"Name":"RankOne Media Group","City":"Amsterdam","Latitude":52.365001,"Longitude":4.892903,"Coordinates":{"type":"Point","coordinates":[52.365001,4.892903]}},{"Name":"Mobypicture","City":"Amsterdam","Latitude":52.3650312,"Longitude":4.9024295,"Coordinates":{"type":"Point","coordinates":[52.3650312,4.9024295]}},{"Name":"MADS","City":"Amsterdam","Latitude":52.3637746,"Longitude":4.8946071,"Coordinates":{"type":"Point","coordinates":[52.3637746,4.8946071]}},{"Name":"YouTellMe","City":"Amsterdam","Latitude":52.3751058,"Longitude":4.8853887,"Coordinates":{"type":"Point","coordinates":[52.3751058,4.8853887]}},{"Name":"Soocial","City":"Amsterdam","Latitude":52.3768747,"Longitude":4.92319,"Coordinates":{"type":"Point","coordinates":[52.3768747,4.92319]}},{"Name":"Mirror42","City":"Amsterdam","Latitude":52.36702,"Longitude":4.896468,"Coordinates":{"type":"Point","coordinates":[52.36702,4.896468]}},{"Name":"Rally Software","City":"Amsterdam","Latitude":52.3380977,"Longitude":4.8688096,"Coordinates":{"type":"Point","coordinates":[52.3380977,4.8688096]}},{"Name":"Oronjo","City":"Amsterdam","Latitude":52.370331,"Longitude":4.917203,"Coordinates":{"type":"Point","coordinates":[52.370331,4.917203]}},{"Name":"Hoteliers","City":"Amsterdam","Latitude":52.376792,"Longitude":4.920582,"Coordinates":{"type":"Point","coordinates":[52.376792,4.920582]}},{"Name":"Nulaz","City":"Amsterdam","Latitude":52.354098,"Longitude":4.863604,"Coordinates":{"type":"Point","coordinates":[52.354098,4.863604]}},{"Name":"Astragy","City":"Amsterdam","Latitude":52.2980614,"Longitude":4.9527091,"Coordinates":{"type":"Point","coordinates":[52.2980614,4.9527091]}},{"Name":"Videostrip","City":"Amsterdam","Latitude":52.3790079,"Longitude":4.8915189,"Coordinates":{"type":"Point","coordinates":[52.3790079,4.8915189]}},{"Name":"24Access","City":"Amsterdam","Latitude":52.3670339,"Longitude":4.8964723,"Coordinates":{"type":"Point","coordinates":[52.3670339,4.8964723]}},{"Name":"Myngle","City":"Amsterdam","Latitude":52.354525,"Longitude":4.912106,"Coordinates":{"type":"Point","coordinates":[52.354525,4.912106]}},{"Name":"Black Duck Software","City":"Amsterdam","Latitude":52.340609,"Longitude":4.870312,"Coordinates":{"type":"Point","coordinates":[52.340609,4.870312]}},{"Name":"Quova","City":"Amsterdam","Latitude":52.35918,"Longitude":4.879167,"Coordinates":{"type":"Point","coordinates":[52.35918,4.879167]}},{"Name":"TwitterCounter","City":"Amsterdam","Latitude":52.3644743,"Longitude":4.8926529,"Coordinates":{"type":"Point","coordinates":[52.3644743,4.8926529]}},{"Name":"NewMarCom","City":"Amsterdam","Latitude":52.352201,"Longitude":4.890314,"Coordinates":{"type":"Point","coordinates":[52.352201,4.890314]}},{"Name":"BLOG08","City":"Amsterdam","Latitude":52.361477,"Longitude":4.891592,"Coordinates":{"type":"Point","coordinates":[52.361477,4.891592]}},{"Name":"TwitterCounter","City":"Amsterdam","Latitude":52.3644743,"Longitude":4.8926529,"Coordinates":{"type":"Point","coordinates":[52.3644743,4.8926529]}},{"Name":"NewMarCom","City":"Amsterdam","Latitude":52.352201,"Longitude":4.890314,"Coordinates":{"type":"Point","coordinates":[52.352201,4.890314]}},{"Name":"BLOG08","City":"Amsterdam","Latitude":52.361477,"Longitude":4.891592,"Coordinates":{"type":"Point","coordinates":[52.361477,4.891592]}},{"Name":"Loquo","City":"Amsterdam","Latitude":52.3490426,"Longitude":4.9175764,"Coordinates":{"type":"Point","coordinates":[52.3490426,4.9175764]}},{"Name":"Nexaweb Technologies","City":"Amsterdam","Latitude":52.390168,"Longitude":4.904251,"Coordinates":{"type":"Point","coordinates":[52.390168,4.904251]}},{"Name":"MarkThisDate","City":"Amsterdam","Latitude":52.355104,"Longitude":4.839033,"Coordinates":{"type":"Point","coordinates":[52.355104,4.839033]}},{"Name":"Gemalto","City":"Amsterdam","Latitude":52.336117,"Longitude":4.887641,"Coordinates":{"type":"Point","coordinates":[52.336117,4.887641]}},{"Name":"LogMeIn","City":"Amsterdam","Latitude":52.3710089,"Longitude":4.9277653,"Coordinates":{"type":"Point","coordinates":[52.3710089,4.9277653]}},{"Name":"Gemzies","City":"Amsterdam","Latitude":52.342938,"Longitude":4.8419083,"Coordinates":{"type":"Point","coordinates":[52.342938,4.8419083]}},{"Name":"Twones","City":"Amsterdam","Latitude":52.3630898,"Longitude":4.8920901,"Coordinates":{"type":"Point","coordinates":[52.3630898,4.8920901]}},{"Name":"Buzzcapture","City":"Amsterdam","Latitude":52.3542312,"Longitude":4.8745766,"Coordinates":{"type":"Point","coordinates":[52.3542312,4.8745766]}},{"Name":"Backbase","City":"Amsterdam","Latitude":52.3710179,"Longitude":4.9277799,"Coordinates":{"type":"Point","coordinates":[52.3710179,4.9277799]}},{"Name":"Mapplr","City":"Amsterdam","Latitude":52.3722556,"Longitude":4.8864897,"Coordinates":{"type":"Point","coordinates":[52.3722556,4.8864897]}},{"Name":"Helpalot","City":"Amsterdam","Latitude":52.3738007,"Longitude":4.8909347,"Coordinates":{"type":"Point","coordinates":[52.3738007,4.8909347]}},{"Name":"Lingo24","City":"Amsterdam","Latitude":52.3637923,"Longitude":4.8941897,"Coordinates":{"type":"Point","coordinates":[52.3637923,4.8941897]}},{"Name":"Wezz Interactive","City":"Amsterdam","Latitude":52.3692971,"Longitude":4.9339596,"Coordinates":{"type":"Point","coordinates":[52.3692971,4.9339596]}},{"Name":"Smart AdServer","City":"Amsterdam","Latitude":52.3524122,"Longitude":4.8673925,"Coordinates":{"type":"Point","coordinates":[52.3524122,4.8673925]}},{"Name":"Paydro","City":"Amsterdam","Latitude":52.3646031,"Longitude":4.8926966,"Coordinates":{"type":"Point","coordinates":[52.3646031,4.8926966]}},{"Name":"NetRetail Holding","City":"Amsterdam","Latitude":52.3435239,"Longitude":4.866857,"Coordinates":{"type":"Point","coordinates":[52.3435239,4.866857]}},{"Name":"MARS media","City":"Amsterdam","Latitude":52.2986042,"Longitude":4.9549211,"Coordinates":{"type":"Point","coordinates":[52.2986042,4.9549211]}},{"Name":"ViralTracker","City":"Amsterdam","Latitude":52.3733812,"Longitude":4.8761066,"Coordinates":{"type":"Point","coordinates":[52.3733812,4.8761066]}},{"Name":"Netsize","City":"Amsterdam","Latitude":52.3738007,"Longitude":4.8909347,"Coordinates":{"type":"Point","coordinates":[52.3738007,4.8909347]}},{"Name":"Avantium Technologies","City":"Amsterdam","Latitude":52.3965603,"Longitude":4.8516964,"Coordinates":{"type":"Point","coordinates":[52.3965603,4.8516964]}},{"Name":"Kimengi","City":"Amsterdam","Latitude":52.3735592,"Longitude":4.8852747,"Coordinates":{"type":"Point","coordinates":[52.3735592,4.8852747]}},{"Name":"Layar","City":"Amsterdam","Latitude":52.3657578,"Longitude":4.8928722,"Coordinates":{"type":"Point","coordinates":[52.3657578,4.8928722]}},{"Name":"Lipperhey","City":"Amsterdam","Latitude":52.3655578,"Longitude":4.9345824,"Coordinates":{"type":"Point","coordinates":[52.3655578,4.9345824]}},{"Name":"Elsevier","City":"Amsterdam","Latitude":52.3738007,"Longitude":4.8909347,"Coordinates":{"type":"Point","coordinates":[52.3738007,4.8909347]}}]