[{"Name":"Babelgum","City":"London","Latitude":53.344104,"Longitude":-6.267494,"Coordinates":{"type":"Point","coordinates":[53.344104,-6.267494]}},{"Name":"KickApps","City":"London","Latitude":51.5094731,"Longitude":-0.1356235,"Coordinates":{"type":"Point","coordinates":[51.5094731,-0.1356235]}},{"Name":"spigit","City":"London","Latitude":51.5170385,"Longitude":-0.1394759,"Coordinates":{"type":"Point","coordinates":[51.5170385,-0.1394759]}},{"Name":"PowerReviews","City":"London","Latitude":51.527099,"Longitude":-0.104408,"Coordinates":{"type":"Point","coordinates":[51.527099,-0.104408]}},{"Name":"LiveWorld","City":"London","Latitude":51.500152,"Longitude":-0.126236,"Coordinates":{"type":"Point","coordinates":[51.500152,-0.126236]}},{"Name":"Curverider","City":"London","Latitude":51.785428,"Longitude":-1.197534,"Coordinates":{"type":"Point","coordinates":[51.785428,-1.197534]}},{"Name":"Zopa","City":"London","Latitude":51.517904,"Longitude":-0.139947,"Coordinates":{"type":"Point","coordinates":[51.517904,-0.139947]}},{"Name":"Covestor","City":"London","Latitude":51.5194201,"Longitude":-0.1433689,"Coordinates":{"type":"Point","coordinates":[51.5194201,-0.1433689]}},{"Name":"Kelkoo","City":"London","Latitude":37.09024,"Longitude":-95.712891,"Coordinates":{"type":"Point","coordinates":[37.09024,-95.712891]}},{"Name":"ReachLocal","City":"London","Latitude":41.53155,"Longitude":-72.188584,"Coordinates":{"type":"Point","coordinates":[41.53155,-72.188584]}},{"Name":"Lastminute","City":"London","Latitude":37.09024,"Longitude":-95.712891,"Coordinates":{"type":"Point","coordinates":[37.09024,-95.712891]}},{"Name":"Seedcamp","City":"London","Latitude":51.5108803,"Longitude":-0.1418973,"Coordinates":{"type":"Point","coordinates":[51.5108803,-0.1418973]}},{"Name":"ITV","City":"London","Latitude":37.09024,"Longitude":-95.712891,"Coordinates":{"type":"Point","coordinates":[37.09024,-95.712891]}},{"Name":"Wonga","City":"London","Latitude":51.5192042,"Longitude":-0.1626103,"Coordinates":{"type":"Point","coordinates":[51.5192042,-0.1626103]}},{"Name":"FAROO","City":"London","Latitude":51.5195795,"Longitude":-0.1065551,"Coordinates":{"type":"Point","coordinates":[51.5195795,-0.1065551]}},{"Name":"Webjam","City":"London","Latitude":51.519819,"Longitude":-0.136174,"Coordinates":{"type":"Point","coordinates":[51.519819,-0.136174]}},{"Name":"Dopplr","City":"London","Latitude":51.523789,"Longitude":-0.087432,"Coordinates":{"type":"Point","coordinates":[51.523789,-0.087432]}},{"Name":"Jiglu","City":"London","Latitude":51.54236,"Longitude":-0.149522,"Coordinates":{"type":"Point","coordinates":[51.54236,-0.149522]}},{"Name":"Tioti","City":"London","Latitude":51.524323,"Longitude":-0.081169,"Coordinates":{"type":"Point","coordinates":[51.524323,-0.081169]}},{"Name":"Songkick","City":"London","Latitude":51.54202,"Longitude":-0.0558343,"Coordinates":{"type":"Point","coordinates":[51.54202,-0.0558343]}},{"Name":"blinkbox","City":"London","Latitude":51.520779,"Longitude":-0.10759,"Coordinates":{"type":"Point","coordinates":[51.520779,-0.10759]}},{"Name":"eXelate","City":"London","Latitude":51.5150129,"Longitude":-0.1326786,"Coordinates":{"type":"Point","coordinates":[51.5150129,-0.1326786]}},{"Name":"Skinkers","City":"London","Latitude":51.604922,"Longitude":0.239866,"Coordinates":{"type":"Point","coordinates":[51.604922,0.239866]}},{"Name":"Zmags","City":"London","Latitude":51.5111369,"Longitude":-0.1247662,"Coordinates":{"type":"Point","coordinates":[51.5111369,-0.1247662]}},{"Name":"Techlightenment","City":"London","Latitude":51.500152,"Longitude":-0.126236,"Coordinates":{"type":"Point","coordinates":[51.500152,-0.126236]}},{"Name":"betNOW","City":"London","Latitude":51.511599,"Longitude":-0.126389,"Coordinates":{"type":"Point","coordinates":[51.511599,-0.126389]}},{"Name":"FriendsAbroad","City":"London","Latitude":51.500152,"Longitude":-0.126236,"Coordinates":{"type":"Point","coordinates":[51.500152,-0.126236]}},{"Name":"WAYN","City":"London","Latitude":51.500152,"Longitude":-0.126236,"Coordinates":{"type":"Point","coordinates":[51.500152,-0.126236]}},{"Name":"UnLtdWorld","City":"London","Latitude":51.522413,"Longitude":-0.0926903,"Coordinates":{"type":"Point","coordinates":[51.522413,-0.0926903]}},{"Name":"WorldTV","City":"London","Latitude":51.5001524,"Longitude":-0.1262362,"Coordinates":{"type":"Point","coordinates":[51.5001524,-0.1262362]}},{"Name":"Seatwave","City":"London","Latitude":51.500152,"Longitude":-0.126236,"Coordinates":{"type":"Point","coordinates":[51.500152,-0.126236]}},{"Name":"idiomag","City":"London","Latitude":51.500152,"Longitude":-0.126236,"Coordinates":{"type":"Point","coordinates":[51.500152,-0.126236]}},{"Name":"Bragster","City":"London","Latitude":51.5220072,"Longitude":-0.0766034,"Coordinates":{"type":"Point","coordinates":[51.5220072,-0.0766034]}},{"Name":"amiando","City":"London","Latitude":51.5248598,"Longitude":-0.0836311,"Coordinates":{"type":"Point","coordinates":[51.5248598,-0.0836311]}},{"Name":"Betfair","City":"London","Latitude":52.4624161,"Longitude":1.696829,"Coordinates":{"type":"Point","coordinates":[52.4624161,1.696829]}},{"Name":"cScape","City":"London","Latitude":51.523676,"Longitude":-0.107843,"Coordinates":{"type":"Point","coordinates":[51.523676,-0.107843]}},{"Name":"Tipped","City":"London","Latitude":51.5211159,"Longitude":-0.0778345,"Coordinates":{"type":"Point","coordinates":[51.5211159,-0.0778345]}},{"Name":"BBC","City":"London","Latitude":51.5185614,"Longitude":-0.1437991,"Coordinates":{"type":"Point","coordinates":[51.5185614,-0.1437991]}},{"Name":"i-together","City":"London","Latitude":51.549687,"Longitude":-0.155935,"Coordinates":{"type":"Point","coordinates":[51.549687,-0.155935]}},{"Name":"ProofHQ","City":"London","Latitude":51.5320478,"Longitude":-0.011154,"Coordinates":{"type":"Point","coordinates":[51.5320478,-0.011154]}},{"Name":"My Neighbourhoods","City":"London","Latitude":51.523307,"Longitude":-0.083999,"Coordinates":{"type":"Point","coordinates":[51.523307,-0.083999]}},{"Name":"Skimlinks","City":"London","Latitude":51.522727,"Longitude":-0.084462,"Coordinates":{"type":"Point","coordinates":[51.522727,-0.084462]}},{"Name":"Taylor Nelson Sofres","City":"London","Latitude":51.500152,"Longitude":-0.126236,"Coordinates":{"type":"Point","coordinates":[51.500152,-0.126236]}},{"Name":"Cheapflights","City":"London","Latitude":51.520062,"Longitude":-0.155478,"Coordinates":{"type":"Point","coordinates":[51.520062,-0.155478]}},{"Name":"Arclight Media Technology","City":"London","Latitude":51.30077,"Longitude":0.404618,"Coordinates":{"type":"Point","coordinates":[51.30077,0.404618]}},{"Name":"Playfish","City":"London","Latitude":51.4991094,"Longitude":-0.1984802,"Coordinates":{"type":"Point","coordinates":[51.4991094,-0.1984802]}},{"Name":"Buongiorno","City":"London","Latitude":51.5232478,"Longitude":-0.082571,"Coordinates":{"type":"Point","coordinates":[51.5232478,-0.082571]}},{"Name":"Myrl","City":"London","Latitude":51.500152,"Longitude":-0.126236,"Coordinates":{"type":"Point","coordinates":[51.500152,-0.126236]}},{"Name":"TJAT","City":"London","Latitude":51.516594,"Longitude":-0.108111,"Coordinates":{"type":"Point","coordinates":[51.516594,-0.108111]}},{"Name":"Pikum","City":"London","Latitude":51.539778,"Longitude":-0.152998,"Coordinates":{"type":"Point","coordinates":[51.539778,-0.152998]}},{"Name":"7digital","City":"London","Latitude":51.5254,"Longitude":-0.083726,"Coordinates":{"type":"Point","coordinates":[51.5254,-0.083726]}},{"Name":"HelloTxt","City":"London","Latitude":51.5235368,"Longitude":-0.0808503,"Coordinates":{"type":"Point","coordinates":[51.5235368,-0.0808503]}},{"Name":"Zemanta","City":"London","Latitude":51.5141566,"Longitude":-0.0934254,"Coordinates":{"type":"Point","coordinates":[51.5141566,-0.0934254]}},{"Name":"Sososher","City":"London","Latitude":51.500152,"Longitude":-0.126236,"Coordinates":{"type":"Point","coordinates":[51.500152,-0.126236]}},{"Name":"EMI Group","City":"London","Latitude":51.49948,"Longitude":-0.192627,"Coordinates":{"type":"Point","coordinates":[51.49948,-0.192627]}},{"Name":"School of Everything","City":"London","Latitude":51.528817,"Longitude":-0.053981,"Coordinates":{"type":"Point","coordinates":[51.528817,-0.053981]}},{"Name":"Kublax","City":"London","Latitude":51.5001524,"Longitude":-0.1262362,"Coordinates":{"type":"Point","coordinates":[51.5001524,-0.1262362]}},{"Name":"Undertone","City":"London","Latitude":51.5118239,"Longitude":-0.132904,"Coordinates":{"type":"Point","coordinates":[51.5118239,-0.132904]}},{"Name":"Trampoline Systems","City":"London","Latitude":51.5212179,"Longitude":-0.0869736,"Coordinates":{"type":"Point","coordinates":[51.5212179,-0.0869736]}},{"Name":"DotHomes","City":"London","Latitude":51.500152,"Longitude":-0.126236,"Coordinates":{"type":"Point","coordinates":[51.500152,-0.126236]}},{"Name":"Huddle","City":"London","Latitude":51.4999065,"Longitude":-0.0814873,"Coordinates":{"type":"Point","coordinates":[51.4999065,-0.0814873]}},{"Name":"Open Source Living","City":"London","Latitude":51.500152,"Longitude":-0.126236,"Coordinates":{"type":"Point","coordinates":[51.500152,-0.126236]}},{"Name":"Chinwag","City":"London","Latitude":51.50485,"Longitude":-0.018647,"Coordinates":{"type":"Point","coordinates":[51.50485,-0.018647]}},{"Name":"mySupermarket","City":"London","Latitude":51.513671,"Longitude":-0.159205,"Coordinates":{"type":"Point","coordinates":[51.513671,-0.159205]}},{"Name":"TrustedPlaces","City":"London","Latitude":51.524483,"Longitude":-0.113583,"Coordinates":{"type":"Point","coordinates":[51.524483,-0.113583]}},{"Name":"Nestoria","City":"London","Latitude":51.5290669,"Longitude":-0.0949082,"Coordinates":{"type":"Point","coordinates":[51.5290669,-0.0949082]}},{"Name":"OnOneMap","City":"London","Latitude":51.512792,"Longitude":-0.147733,"Coordinates":{"type":"Point","coordinates":[51.512792,-0.147733]}},{"Name":"ProcServe","City":"London","Latitude":51.494067,"Longitude":-0.146665,"Coordinates":{"type":"Point","coordinates":[51.494067,-0.146665]}},{"Name":"SOSIUS","City":"London","Latitude":51.5260475,"Longitude":-0.209019,"Coordinates":{"type":"Point","coordinates":[51.5260475,-0.209019]}},{"Name":"TutorByTxt","City":"London","Latitude":51.48916,"Longitude":-0.217662,"Coordinates":{"type":"Point","coordinates":[51.48916,-0.217662]}},{"Name":"Globant","City":"London","Latitude":51.5205095,"Longitude":-0.0952197,"Coordinates":{"type":"Point","coordinates":[51.5205095,-0.0952197]}},{"Name":"ExitReality","City":"London","Latitude":51.500152,"Longitude":-0.126236,"Coordinates":{"type":"Point","coordinates":[51.500152,-0.126236]}},{"Name":"LOVEFiLM","City":"London","Latitude":51.5241294,"Longitude":-0.1585816,"Coordinates":{"type":"Point","coordinates":[51.5241294,-0.1585816]}},{"Name":"Business IT Online","City":"London","Latitude":51.501898,"Longitude":-0.22233,"Coordinates":{"type":"Point","coordinates":[51.501898,-0.22233]}},{"Name":"Voices","City":"London","Latitude":43.014006,"Longitude":-81.280364,"Coordinates":{"type":"Point","coordinates":[43.014006,-81.280364]}},{"Name":"Lingoloopy","City":"London","Latitude":51.500152,"Longitude":-0.126236,"Coordinates":{"type":"Point","coordinates":[51.500152,-0.126236]}},{"Name":"Mind Candy","City":"London","Latitude":51.471958,"Longitude":-0.147646,"Coordinates":{"type":"Point","coordinates":[51.471958,-0.147646]}},{"Name":"Pixsta","City":"London","Latitude":51.51819,"Longitude":-0.208979,"Coordinates":{"type":"Point","coordinates":[51.51819,-0.208979]}},{"Name":"Daily Mail and General Trust","City":"London","Latitude":51.632407,"Longitude":-0.197902,"Coordinates":{"type":"Point","coordinates":[51.632407,-0.197902]}},{"Name":"British Interactive Media Association","City":"London","Latitude":51.657702,"Longitude":-0.088094,"Coordinates":{"type":"Point","coordinates":[51.657702,-0.088094]}},{"Name":"Smarkets","City":"London","Latitude":51.550757,"Longitude":-0.130772,"Coordinates":{"type":"Point","coordinates":[51.550757,-0.130772]}},{"Name":"YouPage Ltd","City":"London","Latitude":51.498319,"Longitude":-0.107143,"Coordinates":{"type":"Point","coordinates":[51.498319,-0.107143]}},{"Name":"JustMeans","City":"London","Latitude":51.503188,"Longitude":-0.091784,"Coordinates":{"type":"Point","coordinates":[51.503188,-0.091784]}},{"Name":"The Travel Editor","City":"London","Latitude":51.754121,"Longitude":-0.560842,"Coordinates":{"type":"Point","coordinates":[51.754121,-0.560842]}},{"Name":"Yabb","City":"London","Latitude":51.514897,"Longitude":-0.13376,"Coordinates":{"type":"Point","coordinates":[51.514897,-0.13376]}},{"Name":"Worship Journal","City":"London","Latitude":51.517076,"Longitude":-0.150417,"Coordinates":{"type":"Point","coordinates":[51.517076,-0.150417]}},{"Name":"Antal International","City":"London","Latitude":51.519158,"Longitude":-0.156212,"Coordinates":{"type":"Point","coordinates":[51.519158,-0.156212]}},{"Name":"Phreadz","City":"London","Latitude":51.500152,"Longitude":-0.126236,"Coordinates":{"type":"Point","coordinates":[51.500152,-0.126236]}},{"Name":"Sazell","City":"London","Latitude":51.500152,"Longitude":-0.126236,"Coordinates":{"type":"Point","coordinates":[51.500152,-0.126236]}},{"Name":"PageUp People","City":"London","Latitude":51.515124,"Longitude":-0.123614,"Coordinates":{"type":"Point","coordinates":[51.515124,-0.123614]}},{"Name":"Merlin Network","City":"London","Latitude":51.518001,"Longitude":-0.137252,"Coordinates":{"type":"Point","coordinates":[51.518001,-0.137252]}},{"Name":"Corizon","City":"London","Latitude":51.5175476,"Longitude":-0.0774998,"Coordinates":{"type":"Point","coordinates":[51.5175476,-0.0774998]}},{"Name":"Unicast","City":"London","Latitude":51.519819,"Longitude":-0.136174,"Coordinates":{"type":"Point","coordinates":[51.519819,-0.136174]}},{"Name":"Monetise","City":"London","Latitude":51.516581,"Longitude":-0.138397,"Coordinates":{"type":"Point","coordinates":[51.516581,-0.138397]}},{"Name":"Wigadoo","City":"London","Latitude":51.5016514,"Longitude":-0.0944873,"Coordinates":{"type":"Point","coordinates":[51.5016514,-0.0944873]}},{"Name":"Channel Intelligence","City":"London","Latitude":51.500152,"Longitude":-0.126236,"Coordinates":{"type":"Point","coordinates":[51.500152,-0.126236]}},{"Name":"Vigster","City":"London","Latitude":51.500152,"Longitude":-0.126236,"Coordinates":{"type":"Point","coordinates":[51.500152,-0.126236]}},{"Name":"LinQpay","City":"London","Latitude":51.514193,"Longitude":-0.146431,"Coordinates":{"type":"Point","coordinates":[51.514193,-0.146431]}},{"Name":"MyMart","City":"London","Latitude":51.541937,"Longitude":-0.157333,"Coordinates":{"type":"Point","coordinates":[51.541937,-0.157333]}},{"Name":"111pix","City":"London","Latitude":51.5133527,"Longitude":-0.1339263,"Coordinates":{"type":"Point","coordinates":[51.5133527,-0.1339263]}},{"Name":"PitchSpace","City":"London","Latitude":51.493317,"Longitude":-0.147348,"Coordinates":{"type":"Point","coordinates":[51.493317,-0.147348]}},{"Name":"IPC Media","City":"London","Latitude":51.505671,"Longitude":-0.099901,"Coordinates":{"type":"Point","coordinates":[51.505671,-0.099901]}},{"Name":"Appian","City":"London","Latitude":51.513122,"Longitude":-0.094384,"Coordinates":{"type":"Point","coordinates":[51.513122,-0.094384]}},{"Name":"Expensure","City":"London","Latitude":51.500152,"Longitude":-0.126236,"Coordinates":{"type":"Point","coordinates":[51.500152,-0.126236]}},{"Name":"Smashbuys","City":"London","Latitude":51.500152,"Longitude":-0.126236,"Coordinates":{"type":"Point","coordinates":[51.500152,-0.126236]}},{"Name":"Vonage","City":"London","Latitude":51.512915,"Longitude":-0.1471,"Coordinates":{"type":"Point","coordinates":[51.512915,-0.1471]}},{"Name":"TweetDeck","City":"London","Latitude":51.5001524,"Longitude":-0.1262362,"Coordinates":{"type":"Point","coordinates":[51.5001524,-0.1262362]}},{"Name":"GlocalReach","City":"London","Latitude":51.5208247,"Longitude":-0.1219851,"Coordinates":{"type":"Point","coordinates":[51.5208247,-0.1219851]}},{"Name":"IDEO","City":"London","Latitude":51.522272,"Longitude":-0.109804,"Coordinates":{"type":"Point","coordinates":[51.522272,-0.109804]}},{"Name":"Wahanda","City":"London","Latitude":41.792265,"Longitude":1.996567,"Coordinates":{"type":"Point","coordinates":[41.792265,1.996567]}},{"Name":"Videoplaza","City":"London","Latitude":51.5212481,"Longitude":-0.1020894,"Coordinates":{"type":"Point","coordinates":[51.5212481,-0.1020894]}},{"Name":"Kappa Prime","City":"London","Latitude":51.498067,"Longitude":-0.175393,"Coordinates":{"type":"Point","coordinates":[51.498067,-0.175393]}},{"Name":"Snagsta","City":"London","Latitude":51.4761694,"Longitude":-0.1400366,"Coordinates":{"type":"Point","coordinates":[51.4761694,-0.1400366]}},{"Name":"Zoomix","City":"London","Latitude":51.462904,"Longitude":-0.263377,"Coordinates":{"type":"Point","coordinates":[51.462904,-0.263377]}},{"Name":"muzu tv","City":"London","Latitude":51.513678,"Longitude":-0.13063,"Coordinates":{"type":"Point","coordinates":[51.513678,-0.13063]}},{"Name":"LookupPage","City":"London","Latitude":51.500446,"Longitude":-0.081486,"Coordinates":{"type":"Point","coordinates":[51.500446,-0.081486]}},{"Name":"Dynamic50","City":"London","Latitude":51.51781,"Longitude":-0.184358,"Coordinates":{"type":"Point","coordinates":[51.51781,-0.184358]}},{"Name":"INFINICOR","City":"London","Latitude":51.4964279,"Longitude":-0.0934183,"Coordinates":{"type":"Point","coordinates":[51.4964279,-0.0934183]}},{"Name":"Advorto","City":"London","Latitude":51.500395,"Longitude":-0.083743,"Coordinates":{"type":"Point","coordinates":[51.500395,-0.083743]}},{"Name":"We're Rolling","City":"London","Latitude":51.496217,"Longitude":-0.0197,"Coordinates":{"type":"Point","coordinates":[51.496217,-0.0197]}},{"Name":"CarbonFlow","City":"London","Latitude":51.500152,"Longitude":-0.126236,"Coordinates":{"type":"Point","coordinates":[51.500152,-0.126236]}},{"Name":"Sweemo","City":"London","Latitude":51.5277086,"Longitude":-0.1227806,"Coordinates":{"type":"Point","coordinates":[51.5277086,-0.1227806]}},{"Name":"Livebookings","City":"London","Latitude":51.5112139,"Longitude":-0.1198244,"Coordinates":{"type":"Point","coordinates":[51.5112139,-0.1198244]}},{"Name":"Event Innovation","City":"London","Latitude":51.516203,"Longitude":-0.133591,"Coordinates":{"type":"Point","coordinates":[51.516203,-0.133591]}},{"Name":"Industria","City":"London","Latitude":51.500152,"Longitude":-0.126236,"Coordinates":{"type":"Point","coordinates":[51.500152,-0.126236]}},{"Name":"The Tin","City":"London","Latitude":51.52129,"Longitude":-0.10978,"Coordinates":{"type":"Point","coordinates":[51.52129,-0.10978]}},{"Name":"Telnic","City":"London","Latitude":51.518107,"Longitude":-0.134078,"Coordinates":{"type":"Point","coordinates":[51.518107,-0.134078]}},{"Name":"Mixcloud","City":"London","Latitude":51.5399105,"Longitude":-0.2859795,"Coordinates":{"type":"Point","coordinates":[51.5399105,-0.2859795]}},{"Name":"Near Global","City":"London","Latitude":51.549348,"Longitude":-0.196592,"Coordinates":{"type":"Point","coordinates":[51.549348,-0.196592]}},{"Name":"Illumina Digital","City":"London","Latitude":51.503612,"Longitude":-0.25628,"Coordinates":{"type":"Point","coordinates":[51.503612,-0.25628]}},{"Name":"Squiz UK","City":"London","Latitude":51.521603,"Longitude":-0.083444,"Coordinates":{"type":"Point","coordinates":[51.521603,-0.083444]}},{"Name":"aNobii","City":"London","Latitude":22.284596,"Longitude":114.200412,"Coordinates":{"type":"Point","coordinates":[22.284596,114.200412]}},{"Name":"Paymo","City":"London","Latitude":51.514165,"Longitude":-0.109017,"Coordinates":{"type":"Point","coordinates":[51.514165,-0.109017]}},{"Name":"retaggr","City":"London","Latitude":51.549167,"Longitude":-0.24233,"Coordinates":{"type":"Point","coordinates":[51.549167,-0.24233]}},{"Name":"SMBLive","City":"London","Latitude":51.51299,"Longitude":-0.124569,"Coordinates":{"type":"Point","coordinates":[51.51299,-0.124569]}},{"Name":"MetaPack","City":"London","Latitude":51.52216,"Longitude":-0.111242,"Coordinates":{"type":"Point","coordinates":[51.52216,-0.111242]}},{"Name":"Intela","City":"London","Latitude":51.5139758,"Longitude":-0.1230127,"Coordinates":{"type":"Point","coordinates":[51.5139758,-0.1230127]}},{"Name":"artandseek","City":"London","Latitude":51.500152,"Longitude":-0.126236,"Coordinates":{"type":"Point","coordinates":[51.500152,-0.126236]}},{"Name":"AKQA","City":"London","Latitude":51.521351,"Longitude":-0.102318,"Coordinates":{"type":"Point","coordinates":[51.521351,-0.102318]}},{"Name":"SMBLive","City":"London","Latitude":51.51299,"Longitude":-0.124569,"Coordinates":{"type":"Point","coordinates":[51.51299,-0.124569]}},{"Name":"MetaPack","City":"London","Latitude":51.52216,"Longitude":-0.111242,"Coordinates":{"type":"Point","coordinates":[51.52216,-0.111242]}},{"Name":"artandseek","City":"London","Latitude":51.500152,"Longitude":-0.126236,"Coordinates":{"type":"Point","coordinates":[51.500152,-0.126236]}},{"Name":"Intela","City":"London","Latitude":51.5139758,"Longitude":-0.1230127,"Coordinates":{"type":"Point","coordinates":[51.5139758,-0.1230127]}},{"Name":"AKQA","City":"London","Latitude":51.521351,"Longitude":-0.102318,"Coordinates":{"type":"Point","coordinates":[51.521351,-0.102318]}},{"Name":"Small Business Advertising Network","City":"London","Latitude":51.511349,"Longitude":-0.103101,"Coordinates":{"type":"Point","coordinates":[51.511349,-0.103101]}},{"Name":"Streamline Alliance","City":"London","Latitude":51.483057,"Longitude":-0.207932,"Coordinates":{"type":"Point","coordinates":[51.483057,-0.207932]}},{"Name":"SoftShell","City":"London","Latitude":42.982515,"Longitude":-81.253973,"Coordinates":{"type":"Point","coordinates":[42.982515,-81.253973]}},{"Name":"PCIQ","City":"London","Latitude":51.515374,"Longitude":-0.130109,"Coordinates":{"type":"Point","coordinates":[51.515374,-0.130109]}},{"Name":"Qpyn","City":"London","Latitude":51.588083,"Longitude":-0.197676,"Coordinates":{"type":"Point","coordinates":[51.588083,-0.197676]}},{"Name":"mashup* Event","City":"London","Latitude":51.5093129,"Longitude":-0.0871537,"Coordinates":{"type":"Point","coordinates":[51.5093129,-0.0871537]}},{"Name":"Yankee Group","City":"London","Latitude":51.521104,"Longitude":-0.125134,"Coordinates":{"type":"Point","coordinates":[51.521104,-0.125134]}},{"Name":"SearchSalad","City":"London","Latitude":51.509905,"Longitude":-0.145438,"Coordinates":{"type":"Point","coordinates":[51.509905,-0.145438]}},{"Name":"OneSource Information Services","City":"London","Latitude":51.518327,"Longitude":-0.088245,"Coordinates":{"type":"Point","coordinates":[51.518327,-0.088245]}},{"Name":"24SevenOffice","City":"London","Latitude":51.514913,"Longitude":-0.134634,"Coordinates":{"type":"Point","coordinates":[51.514913,-0.134634]}},{"Name":"litl","City":"London","Latitude":51.511494,"Longitude":-0.139244,"Coordinates":{"type":"Point","coordinates":[51.511494,-0.139244]}},{"Name":"Whereonearth","City":"London","Latitude":51.513422,"Longitude":-0.128958,"Coordinates":{"type":"Point","coordinates":[51.513422,-0.128958]}},{"Name":"Acknowledgement","City":"London","Latitude":51.5183725,"Longitude":-0.0740678,"Coordinates":{"type":"Point","coordinates":[51.5183725,-0.0740678]}},{"Name":"Box UK","City":"London","Latitude":51.5107737,"Longitude":-0.1392447,"Coordinates":{"type":"Point","coordinates":[51.5107737,-0.1392447]}},{"Name":"Tailgate Technologies","City":"London","Latitude":51.511889,"Longitude":-0.127743,"Coordinates":{"type":"Point","coordinates":[51.511889,-0.127743]}},{"Name":"Siondo","City":"London","Latitude":51.480657,"Longitude":-0.202734,"Coordinates":{"type":"Point","coordinates":[51.480657,-0.202734]}},{"Name":"MultiMap","City":"London","Latitude":51.514165,"Longitude":-0.109017,"Coordinates":{"type":"Point","coordinates":[51.514165,-0.109017]}},{"Name":"SocialGO","City":"London","Latitude":51.5027669,"Longitude":-0.0925694,"Coordinates":{"type":"Point","coordinates":[51.5027669,-0.0925694]}},{"Name":"Zoopla","City":"London","Latitude":51.5037471,"Longitude":-0.1010801,"Coordinates":{"type":"Point","coordinates":[51.5037471,-0.1010801]}},{"Name":"Signature IT","City":"London","Latitude":51.500152,"Longitude":-0.126236,"Coordinates":{"type":"Point","coordinates":[51.500152,-0.126236]}},{"Name":"Recast Digital","City":"London","Latitude":51.499671,"Longitude":-0.132894,"Coordinates":{"type":"Point","coordinates":[51.499671,-0.132894]}},{"Name":"Sparkpr","City":"London","Latitude":51.524127,"Longitude":-0.0762235,"Coordinates":{"type":"Point","coordinates":[51.524127,-0.0762235]}},{"Name":"talkbiznow","City":"London","Latitude":51.5149197,"Longitude":-0.1346112,"Coordinates":{"type":"Point","coordinates":[51.5149197,-0.1346112]}},{"Name":"CTL Europe","City":"London","Latitude":51.55967,"Longitude":-0.279676,"Coordinates":{"type":"Point","coordinates":[51.55967,-0.279676]}},{"Name":"Solid State Group","City":"London","Latitude":51.5246619,"Longitude":-0.0830772,"Coordinates":{"type":"Point","coordinates":[51.5246619,-0.0830772]}},{"Name":"Quidco","City":"London","Latitude":51.4418908,"Longitude":0.2139465,"Coordinates":{"type":"Point","coordinates":[51.4418908,0.2139465]}},{"Name":"InnoCentive","City":"London","Latitude":51.5183541,"Longitude":-0.1581968,"Coordinates":{"type":"Point","coordinates":[51.5183541,-0.1581968]}},{"Name":"Property Owl","City":"London","Latitude":51.465432,"Longitude":-0.18259,"Coordinates":{"type":"Point","coordinates":[51.465432,-0.18259]}},{"Name":"moanlog","City":"London","Latitude":51.5001524,"Longitude":-0.1262362,"Coordinates":{"type":"Point","coordinates":[51.5001524,-0.1262362]}},{"Name":"ShipServ","City":"London","Latitude":51.4629038,"Longitude":-0.263377,"Coordinates":{"type":"Point","coordinates":[51.4629038,-0.263377]}},{"Name":"Mobyko","City":"London","Latitude":51.5124201,"Longitude":-0.137494,"Coordinates":{"type":"Point","coordinates":[51.5124201,-0.137494]}},{"Name":"SLevolution","City":"London","Latitude":51.4598249,"Longitude":-0.1364995,"Coordinates":{"type":"Point","coordinates":[51.4598249,-0.1364995]}},{"Name":"Movirtu","City":"London","Latitude":51.5499708,"Longitude":-0.1815999,"Coordinates":{"type":"Point","coordinates":[51.5499708,-0.1815999]}},{"Name":"Which Web Design Company","City":"London","Latitude":51.5001524,"Longitude":-0.1262362,"Coordinates":{"type":"Point","coordinates":[51.5001524,-0.1262362]}},{"Name":"BeatPick","City":"London","Latitude":51.5001524,"Longitude":-0.1262362,"Coordinates":{"type":"Point","coordinates":[51.5001524,-0.1262362]}},{"Name":"MessageSpace","City":"London","Latitude":51.5220744,"Longitude":-0.1096216,"Coordinates":{"type":"Point","coordinates":[51.5220744,-0.1096216]}},{"Name":"Jake","City":"London","Latitude":51.3264445,"Longitude":-0.1535555,"Coordinates":{"type":"Point","coordinates":[51.3264445,-0.1535555]}},{"Name":"ResponseTek","City":"London","Latitude":51.5001524,"Longitude":-0.1262362,"Coordinates":{"type":"Point","coordinates":[51.5001524,-0.1262362]}},{"Name":"Adjug","City":"London","Latitude":51.5441671,"Longitude":-0.1506897,"Coordinates":{"type":"Point","coordinates":[51.5441671,-0.1506897]}},{"Name":"Grapevine Talk","City":"London","Latitude":51.5001524,"Longitude":-0.1262362,"Coordinates":{"type":"Point","coordinates":[51.5001524,-0.1262362]}},{"Name":"Skipso","City":"London","Latitude":51.5206245,"Longitude":-0.1168286,"Coordinates":{"type":"Point","coordinates":[51.5206245,-0.1168286]}},{"Name":"4AdNetworks","City":"London","Latitude":51.5201597,"Longitude":-0.1338595,"Coordinates":{"type":"Point","coordinates":[51.5201597,-0.1338595]}},{"Name":"3C Limited","City":"London","Latitude":51.5026763,"Longitude":-0.104579,"Coordinates":{"type":"Point","coordinates":[51.5026763,-0.104579]}},{"Name":"Busuu","City":"London","Latitude":51.5480857,"Longitude":0.6553168,"Coordinates":{"type":"Point","coordinates":[51.5480857,0.6553168]}},{"Name":"SupplierSelect","City":"London","Latitude":51.5137321,"Longitude":-0.1427993,"Coordinates":{"type":"Point","coordinates":[51.5137321,-0.1427993]}},{"Name":"mydeco","City":"London","Latitude":51.518101,"Longitude":-0.468617,"Coordinates":{"type":"Point","coordinates":[51.518101,-0.468617]}},{"Name":"Aconex","City":"London","Latitude":51.5117478,"Longitude":-0.1200848,"Coordinates":{"type":"Point","coordinates":[51.5117478,-0.1200848]}},{"Name":"Clarabridge","City":"London","Latitude":51.4918451,"Longitude":-0.2617681,"Coordinates":{"type":"Point","coordinates":[51.4918451,-0.2617681]}},{"Name":"LeadPoint","City":"London","Latitude":51.5177117,"Longitude":-0.1410218,"Coordinates":{"type":"Point","coordinates":[51.5177117,-0.1410218]}},{"Name":"Demotix","City":"London","Latitude":51.5374249,"Longitude":-0.2065907,"Coordinates":{"type":"Point","coordinates":[51.5374249,-0.2065907]}},{"Name":"Make It Rain","City":"London","Latitude":51.4626,"Longitude":-0.139082,"Coordinates":{"type":"Point","coordinates":[51.4626,-0.139082]}},{"Name":"CareerPlayer","City":"London","Latitude":51.5001524,"Longitude":-0.1262362,"Coordinates":{"type":"Point","coordinates":[51.5001524,-0.1262362]}},{"Name":"Kramaley Games","City":"London","Latitude":51.4944999,"Longitude":-0.1479318,"Coordinates":{"type":"Point","coordinates":[51.4944999,-0.1479318]}},{"Name":"Wazoo Sports","City":"London","Latitude":37.1286,"Longitude":-84.0834,"Coordinates":{"type":"Point","coordinates":[37.1286,-84.0834]}},{"Name":"Quick TV","City":"London","Latitude":51.5115309,"Longitude":-0.1392765,"Coordinates":{"type":"Point","coordinates":[51.5115309,-0.1392765]}},{"Name":"BrightTALK","City":"London","Latitude":51.5157682,"Longitude":-0.0970749,"Coordinates":{"type":"Point","coordinates":[51.5157682,-0.0970749]}},{"Name":"Filmed Media","City":"London","Latitude":51.5359008,"Longitude":-0.2055081,"Coordinates":{"type":"Point","coordinates":[51.5359008,-0.2055081]}},{"Name":"People for Earth","City":"London","Latitude":51.5001524,"Longitude":-0.1262362,"Coordinates":{"type":"Point","coordinates":[51.5001524,-0.1262362]}},{"Name":"Spoonfed","City":"London","Latitude":51.7577453,"Longitude":-1.2186724,"Coordinates":{"type":"Point","coordinates":[51.7577453,-1.2186724]}},{"Name":"BizAps","City":"London","Latitude":51.4926213,"Longitude":-0.2730612,"Coordinates":{"type":"Point","coordinates":[51.4926213,-0.2730612]}},{"Name":"estatecreate","City":"London","Latitude":51.5186196,"Longitude":-0.166813,"Coordinates":{"type":"Point","coordinates":[51.5186196,-0.166813]}},{"Name":"QuickPlay Media","City":"London","Latitude":51.491028,"Longitude":-0.281845,"Coordinates":{"type":"Point","coordinates":[51.491028,-0.281845]}},{"Name":"DemandTec","City":"London","Latitude":51.5069206,"Longitude":-0.1249337,"Coordinates":{"type":"Point","coordinates":[51.5069206,-0.1249337]}},{"Name":"WeDoCreative","City":"London","Latitude":51.4993689,"Longitude":-0.1364327,"Coordinates":{"type":"Point","coordinates":[51.4993689,-0.1364327]}},{"Name":"Emoshape","City":"London","Latitude":51.5123833,"Longitude":-0.1158832,"Coordinates":{"type":"Point","coordinates":[51.5123833,-0.1158832]}},{"Name":"Team Rubber","City":"London","Latitude":51.5137373,"Longitude":-0.1316318,"Coordinates":{"type":"Point","coordinates":[51.5137373,-0.1316318]}},{"Name":"Printerinks","City":"London","Latitude":51.5563527,"Longitude":-0.3853916,"Coordinates":{"type":"Point","coordinates":[51.5563527,-0.3853916]}},{"Name":"Tata Communications","City":"London","Latitude":51.5139146,"Longitude":-0.08665,"Coordinates":{"type":"Point","coordinates":[51.5139146,-0.08665]}},{"Name":"Civolution","City":"London","Latitude":51.514653,"Longitude":-0.1253299,"Coordinates":{"type":"Point","coordinates":[51.514653,-0.1253299]}},{"Name":"Shutl","City":"London","Latitude":51.5196135,"Longitude":-0.1020265,"Coordinates":{"type":"Point","coordinates":[51.5196135,-0.1020265]}},{"Name":"Masabi","City":"London","Latitude":51.503753,"Longitude":-0.0965536,"Coordinates":{"type":"Point","coordinates":[51.503753,-0.0965536]}},{"Name":"AfterWorkDeals","City":"London","Latitude":51.4918635,"Longitude":-0.1886272,"Coordinates":{"type":"Point","coordinates":[51.4918635,-0.1886272]}},{"Name":"Online CC","City":"London","Latitude":51.5312232,"Longitude":-0.1033237,"Coordinates":{"type":"Point","coordinates":[51.5312232,-0.1033237]}},{"Name":"Rassami","City":"London","Latitude":51.5001524,"Longitude":-0.1262362,"Coordinates":{"type":"Point","coordinates":[51.5001524,-0.1262362]}},{"Name":"TwistedTree","City":"London","Latitude":51.5001524,"Longitude":-0.1262362,"Coordinates":{"type":"Point","coordinates":[51.5001524,-0.1262362]}},{"Name":"VouChaCha","City":"London","Latitude":51.5001524,"Longitude":-0.1262362,"Coordinates":{"type":"Point","coordinates":[51.5001524,-0.1262362]}},{"Name":"Icreon Communications","City":"London","Latitude":51.4647321,"Longitude":-0.1614896,"Coordinates":{"type":"Point","coordinates":[51.4647321,-0.1614896]}},{"Name":"eModeration","City":"London","Latitude":51.5195795,"Longitude":-0.1065551,"Coordinates":{"type":"Point","coordinates":[51.5195795,-0.1065551]}},{"Name":"Neutron Creations","City":"London","Latitude":51.519772,"Longitude":-0.1597092,"Coordinates":{"type":"Point","coordinates":[51.519772,-0.1597092]}},{"Name":"LaunchMind","City":"London","Latitude":51.6214201,"Longitude":-0.2547278,"Coordinates":{"type":"Point","coordinates":[51.6214201,-0.2547278]}},{"Name":"TVF Communications","City":"London","Latitude":51.5312232,"Longitude":-0.1033237,"Coordinates":{"type":"Point","coordinates":[51.5312232,-0.1033237]}},{"Name":"Corebridge","City":"London","Latitude":51.5051974,"Longitude":-0.1457395,"Coordinates":{"type":"Point","coordinates":[51.5051974,-0.1457395]}},{"Name":"FreshNetworks","City":"London","Latitude":51.5178123,"Longitude":-0.11796,"Coordinates":{"type":"Point","coordinates":[51.5178123,-0.11796]}},{"Name":"Mendeley","City":"London","Latitude":51.5224267,"Longitude":-0.1046546,"Coordinates":{"type":"Point","coordinates":[51.5224267,-0.1046546]}},{"Name":"Concrete","City":"London","Latitude":51.5232255,"Longitude":-0.1010535,"Coordinates":{"type":"Point","coordinates":[51.5232255,-0.1010535]}},{"Name":"VisConPro","City":"London","Latitude":51.5763088,"Longitude":-0.11394,"Coordinates":{"type":"Point","coordinates":[51.5763088,-0.11394]}},{"Name":"TranZfinity","City":"London","Latitude":51.5069206,"Longitude":-0.1249337,"Coordinates":{"type":"Point","coordinates":[51.5069206,-0.1249337]}},{"Name":"Last Post Limited","City":"London","Latitude":51.5270568,"Longitude":-0.1043766,"Coordinates":{"type":"Point","coordinates":[51.5270568,-0.1043766]}},{"Name":"Cognitive Match","City":"London","Latitude":51.5119418,"Longitude":-0.0936688,"Coordinates":{"type":"Point","coordinates":[51.5119418,-0.0936688]}},{"Name":"rent2friend","City":"London","Latitude":51.5001524,"Longitude":-0.1262362,"Coordinates":{"type":"Point","coordinates":[51.5001524,-0.1262362]}},{"Name":"Masterpiece","City":"London","Latitude":51.5219131,"Longitude":-0.0833747,"Coordinates":{"type":"Point","coordinates":[51.5219131,-0.0833747]}},{"Name":"ePartners","City":"London","Latitude":51.5123703,"Longitude":-0.0865272,"Coordinates":{"type":"Point","coordinates":[51.5123703,-0.0865272]}},{"Name":"Abacus e-Media","City":"London","Latitude":51.5088058,"Longitude":-0.1335871,"Coordinates":{"type":"Point","coordinates":[51.5088058,-0.1335871]}},{"Name":"RadioScape","City":"London","Latitude":51.5249464,"Longitude":-0.1442311,"Coordinates":{"type":"Point","coordinates":[51.5249464,-0.1442311]}},{"Name":"Scottsdale Futures and Options Limited","City":"London","Latitude":51.5949018,"Longitude":-0.3313702,"Coordinates":{"type":"Point","coordinates":[51.5949018,-0.3313702]}},{"Name":"Studentbox","City":"London","Latitude":51.5292245,"Longitude":-0.0921218,"Coordinates":{"type":"Point","coordinates":[51.5292245,-0.0921218]}},{"Name":"Boring","City":"London","Latitude":51.5183725,"Longitude":-0.0740678,"Coordinates":{"type":"Point","coordinates":[51.5183725,-0.0740678]}},{"Name":"Subzero Software","City":"London","Latitude":51.5347897,"Longitude":-0.1080873,"Coordinates":{"type":"Point","coordinates":[51.5347897,-0.1080873]}},{"Name":"Holiday Watchdog","City":"London","Latitude":51.5151513,"Longitude":-0.1327293,"Coordinates":{"type":"Point","coordinates":[51.5151513,-0.1327293]}},{"Name":"Zoombu","City":"London","Latitude":51.5001524,"Longitude":-0.1262362,"Coordinates":{"type":"Point","coordinates":[51.5001524,-0.1262362]}},{"Name":"asuitthatfits","City":"London","Latitude":51.4281599,"Longitude":-0.0708922,"Coordinates":{"type":"Point","coordinates":[51.4281599,-0.0708922]}},{"Name":"Solarenergy-solarpower","City":"London","Latitude":51.4843838,"Longitude":-0.0741379,"Coordinates":{"type":"Point","coordinates":[51.4843838,-0.0741379]}},{"Name":"Lingo24","City":"London","Latitude":51.518365,"Longitude":-0.1405204,"Coordinates":{"type":"Point","coordinates":[51.518365,-0.1405204]}},{"Name":"Musicmetric","City":"London","Latitude":51.5253765,"Longitude":-0.0856982,"Coordinates":{"type":"Point","coordinates":[51.5253765,-0.0856982]}},{"Name":"ControlCircle","City":"London","Latitude":51.5003204,"Longitude":-0.0178689,"Coordinates":{"type":"Point","coordinates":[51.5003204,-0.0178689]}},{"Name":"Altaine","City":"London","Latitude":51.5001524,"Longitude":-0.1262362,"Coordinates":{"type":"Point","coordinates":[51.5001524,-0.1262362]}},{"Name":"upad","City":"London","Latitude":51.5382894,"Longitude":-0.2023958,"Coordinates":{"type":"Point","coordinates":[51.5382894,-0.2023958]}},{"Name":"Foviance","City":"London","Latitude":34.01873,"Longitude":-97.955538,"Coordinates":{"type":"Point","coordinates":[34.01873,-97.955538]}},{"Name":"TV Pixie","City":"London","Latitude":51.5206682,"Longitude":-0.1852079,"Coordinates":{"type":"Point","coordinates":[51.5206682,-0.1852079]}},{"Name":"Swiffen","City":"London","Latitude":51.5163382,"Longitude":-0.0828173,"Coordinates":{"type":"Point","coordinates":[51.5163382,-0.0828173]}},{"Name":"Plug in SEO","City":"London","Latitude":51.5001524,"Longitude":-0.1262362,"Coordinates":{"type":"Point","coordinates":[51.5001524,-0.1262362]}},{"Name":"Hostway","City":"London","Latitude":51.4992488,"Longitude":-0.0147395,"Coordinates":{"type":"Point","coordinates":[51.4992488,-0.0147395]}},{"Name":"Specle","City":"London","Latitude":51.5080607,"Longitude":-0.1067217,"Coordinates":{"type":"Point","coordinates":[51.5080607,-0.1067217]}},{"Name":"Language Direct","City":"London","Latitude":47.5546712,"Longitude":7.6031626,"Coordinates":{"type":"Point","coordinates":[47.5546712,7.6031626]}},{"Name":"Tweenjo","City":"London","Latitude":51.5137747,"Longitude":-0.1459893,"Coordinates":{"type":"Point","coordinates":[51.5137747,-0.1459893]}},{"Name":"Ventoria","City":"London","Latitude":51.5270568,"Longitude":-0.1043766,"Coordinates":{"type":"Point","coordinates":[51.5270568,-0.1043766]}},{"Name":"Space Spare","City":"London","Latitude":51.5603951,"Longitude":-0.1365725,"Coordinates":{"type":"Point","coordinates":[51.5603951,-0.1365725]}},{"Name":"Stream57","City":"London","Latitude":51.5149197,"Longitude":-0.1346112,"Coordinates":{"type":"Point","coordinates":[51.5149197,-0.1346112]}},{"Name":"Marmalade on Toast","City":"London","Latitude":51.5001524,"Longitude":-0.1262362,"Coordinates":{"type":"Point","coordinates":[51.5001524,-0.1262362]}},{"Name":"Ayima","City":"London","Latitude":51.5211504,"Longitude":-0.1036021,"Coordinates":{"type":"Point","coordinates":[51.5211504,-0.1036021]}},{"Name":"Red Engineering Design","City":"London","Latitude":51.5234209,"Longitude":-0.1398614,"Coordinates":{"type":"Point","coordinates":[51.5234209,-0.1398614]}},{"Name":"Huge","City":"London","Latitude":51.4920878,"Longitude":-0.1652217,"Coordinates":{"type":"Point","coordinates":[51.4920878,-0.1652217]}},{"Name":"EPAM Systems","City":"London","Latitude":51.5154835,"Longitude":-0.0881016,"Coordinates":{"type":"Point","coordinates":[51.5154835,-0.0881016]}},{"Name":"Netbiscuits","City":"London","Latitude":51.513248,"Longitude":-0.1547377,"Coordinates":{"type":"Point","coordinates":[51.513248,-0.1547377]}},{"Name":"Promotion Space Group","City":"London","Latitude":51.49695,"Longitude":-0.1356064,"Coordinates":{"type":"Point","coordinates":[51.49695,-0.1356064]}},{"Name":"Owngig","City":"London","Latitude":39.39615,"Longitude":22.76303,"Coordinates":{"type":"Point","coordinates":[39.39615,22.76303]}},{"Name":"Eglue Business Technologies","City":"London","Latitude":51.5115309,"Longitude":-0.1392765,"Coordinates":{"type":"Point","coordinates":[51.5115309,-0.1392765]}},{"Name":"Corvil","City":"London","Latitude":51.5175331,"Longitude":-0.0828519,"Coordinates":{"type":"Point","coordinates":[51.5175331,-0.0828519]}},{"Name":"Breakaway Communications","City":"London","Latitude":51.5755277,"Longitude":-0.1379199,"Coordinates":{"type":"Point","coordinates":[51.5755277,-0.1379199]}},{"Name":"Ruby Mill","City":"London","Latitude":51.528933,"Longitude":-0.0952651,"Coordinates":{"type":"Point","coordinates":[51.528933,-0.0952651]}},{"Name":"Zensify","City":"London","Latitude":51.4940757,"Longitude":-0.146659,"Coordinates":{"type":"Point","coordinates":[51.4940757,-0.146659]}},{"Name":"Autoquake","City":"London","Latitude":51.543337,"Longitude":-0.172364,"Coordinates":{"type":"Point","coordinates":[51.543337,-0.172364]}},{"Name":"Real Time Content","City":"London","Latitude":51.5209358,"Longitude":-0.1424094,"Coordinates":{"type":"Point","coordinates":[51.5209358,-0.1424094]}},{"Name":"Rapid Action Packaging","City":"London","Latitude":51.4698433,"Longitude":-0.2611303,"Coordinates":{"type":"Point","coordinates":[51.4698433,-0.2611303]}},{"Name":"Schway","City":"London","Latitude":51.519816,"Longitude":-0.1361616,"Coordinates":{"type":"Point","coordinates":[51.519816,-0.1361616]}},{"Name":"IntraWorlds","City":"London","Latitude":51.5033235,"Longitude":-0.1065563,"Coordinates":{"type":"Point","coordinates":[51.5033235,-0.1065563]}},{"Name":"Zookel","City":"London","Latitude":51.5203268,"Longitude":-0.0994596,"Coordinates":{"type":"Point","coordinates":[51.5203268,-0.0994596]}},{"Name":"Bar Exchange","City":"London","Latitude":51.5395914,"Longitude":-0.1525048,"Coordinates":{"type":"Point","coordinates":[51.5395914,-0.1525048]}},{"Name":"isango!","City":"London","Latitude":51.519816,"Longitude":-0.1361616,"Coordinates":{"type":"Point","coordinates":[51.519816,-0.1361616]}},{"Name":"Four Colors","City":"London","Latitude":51.406773,"Longitude":-0.2332,"Coordinates":{"type":"Point","coordinates":[51.406773,-0.2332]}},{"Name":"Netsize","City":"London","Latitude":51.5001524,"Longitude":-0.1262362,"Coordinates":{"type":"Point","coordinates":[51.5001524,-0.1262362]}},{"Name":"Adeye Mobile","City":"London","Latitude":51.515129,"Longitude":-0.1297711,"Coordinates":{"type":"Point","coordinates":[51.515129,-0.1297711]}},{"Name":"Padz","City":"London","Latitude":51.5220763,"Longitude":-0.1153003,"Coordinates":{"type":"Point","coordinates":[51.5220763,-0.1153003]}},{"Name":"Tribold","City":"London","Latitude":51.5209358,"Longitude":-0.1424094,"Coordinates":{"type":"Point","coordinates":[51.5209358,-0.1424094]}},{"Name":"Tug","City":"London","Latitude":51.5246619,"Longitude":-0.0830772,"Coordinates":{"type":"Point","coordinates":[51.5246619,-0.0830772]}},{"Name":"En-Twyn","City":"London","Latitude":51.6104102,"Longitude":-0.1937731,"Coordinates":{"type":"Point","coordinates":[51.6104102,-0.1937731]}},{"Name":"The Hyperwords Company","City":"London","Latitude":51.5114438,"Longitude":-0.1356915,"Coordinates":{"type":"Point","coordinates":[51.5114438,-0.1356915]}},{"Name":"Greenvoice","City":"London","Latitude":51.5147349,"Longitude":-0.0874239,"Coordinates":{"type":"Point","coordinates":[51.5147349,-0.0874239]}},{"Name":"ipadio","City":"London","Latitude":51.8205815,"Longitude":0.0118608,"Coordinates":{"type":"Point","coordinates":[51.8205815,0.0118608]}},{"Name":"AgreeYourFee","City":"London","Latitude":51.5001524,"Longitude":-0.1262362,"Coordinates":{"type":"Point","coordinates":[51.5001524,-0.1262362]}},{"Name":"GetItWithMe","City":"London","Latitude":51.5793731,"Longitude":-0.1162418,"Coordinates":{"type":"Point","coordinates":[51.5793731,-0.1162418]}},{"Name":"Rabbit Technologies","City":"London","Latitude":51.55738,"Longitude":-0.27548,"Coordinates":{"type":"Point","coordinates":[51.55738,-0.27548]}},{"Name":"whatjobsite","City":"London","Latitude":51.5001524,"Longitude":-0.1262362,"Coordinates":{"type":"Point","coordinates":[51.5001524,-0.1262362]}},{"Name":"Enternships","City":"London","Latitude":51.5215279,"Longitude":-0.1038219,"Coordinates":{"type":"Point","coordinates":[51.5215279,-0.1038219]}},{"Name":"Bandstocks","City":"London","Latitude":51.5142132,"Longitude":-0.1261853,"Coordinates":{"type":"Point","coordinates":[51.5142132,-0.1261853]}},{"Name":"Comufy","City":"London","Latitude":51.5220763,"Longitude":-0.1153003,"Coordinates":{"type":"Point","coordinates":[51.5220763,-0.1153003]}},{"Name":"BioMed Central","City":"London","Latitude":51.5186118,"Longitude":-0.111509,"Coordinates":{"type":"Point","coordinates":[51.5186118,-0.111509]}},{"Name":"oneDrum","City":"London","Latitude":51.5001524,"Longitude":-0.1262362,"Coordinates":{"type":"Point","coordinates":[51.5001524,-0.1262362]}},{"Name":"Smarta","City":"London","Latitude":51.5201309,"Longitude":-0.1326886,"Coordinates":{"type":"Point","coordinates":[51.5201309,-0.1326886]}},{"Name":"LearningMate","City":"London","Latitude":51.5241069,"Longitude":-0.1169935,"Coordinates":{"type":"Point","coordinates":[51.5241069,-0.1169935]}},{"Name":"PicFog","City":"London","Latitude":51.4770982,"Longitude":-0.2867703,"Coordinates":{"type":"Point","coordinates":[51.4770982,-0.2867703]}},{"Name":"ICU Global","City":"London","Latitude":51.7575498,"Longitude":-1.2192678,"Coordinates":{"type":"Point","coordinates":[51.7575498,-1.2192678]}},{"Name":"Keen Software House","City":"London","Latitude":51.5220763,"Longitude":-0.1153003,"Coordinates":{"type":"Point","coordinates":[51.5220763,-0.1153003]}},{"Name":"PostalMethods","City":"London","Latitude":51.4940898,"Longitude":-0.143398,"Coordinates":{"type":"Point","coordinates":[51.4940898,-0.143398]}},{"Name":"Myhive","City":"London","Latitude":51.5514688,"Longitude":-0.1996418,"Coordinates":{"type":"Point","coordinates":[51.5514688,-0.1996418]}},{"Name":"FireScope","City":"London","Latitude":51.5001524,"Longitude":-0.1262362,"Coordinates":{"type":"Point","coordinates":[51.5001524,-0.1262362]}},{"Name":"DoTradeEasy","City":"London","Latitude":51.5270568,"Longitude":-0.1043766,"Coordinates":{"type":"Point","coordinates":[51.5270568,-0.1043766]}},{"Name":"Flirtomatic","City":"London","Latitude":51.5272363,"Longitude":-0.0956262,"Coordinates":{"type":"Point","coordinates":[51.5272363,-0.0956262]}},{"Name":"Struq","City":"London","Latitude":51.5152023,"Longitude":-0.1366861,"Coordinates":{"type":"Point","coordinates":[51.5152023,-0.1366861]}},{"Name":"Lateral Net","City":"London","Latitude":51.5185322,"Longitude":-0.1420176,"Coordinates":{"type":"Point","coordinates":[51.5185322,-0.1420176]}},{"Name":"FNZ","City":"London","Latitude":51.5112139,"Longitude":-0.1198244,"Coordinates":{"type":"Point","coordinates":[51.5112139,-0.1198244]}},{"Name":"ArcelorMittal","City":"London","Latitude":51.5096437,"Longitude":-0.146588,"Coordinates":{"type":"Point","coordinates":[51.5096437,-0.146588]}},{"Name":"famebook","City":"London","Latitude":51.5001524,"Longitude":-0.1262362,"Coordinates":{"type":"Point","coordinates":[51.5001524,-0.1262362]}},{"Name":"Testplant","City":"London","Latitude":51.517356,"Longitude":-0.1037742,"Coordinates":{"type":"Point","coordinates":[51.517356,-0.1037742]}},{"Name":"iomart Group","City":"London","Latitude":51.5231142,"Longitude":-0.0846702,"Coordinates":{"type":"Point","coordinates":[51.5231142,-0.0846702]}},{"Name":"Block Shield","City":"London","Latitude":51.5127901,"Longitude":-0.114374,"Coordinates":{"type":"Point","coordinates":[51.5127901,-0.114374]}},{"Name":"acrossair","City":"London","Latitude":51.5177425,"Longitude":-0.1165365,"Coordinates":{"type":"Point","coordinates":[51.5177425,-0.1165365]}}]