[{"Name":"Digg","City":"San Francisco","Latitude":37.764726,"Longitude":-122.394523,"Coordinates":{"type":"Point","coordinates":[37.764726,-122.394523]}},{"Name":"Scribd","City":"San Francisco","Latitude":37.789634,"Longitude":-122.404052,"Coordinates":{"type":"Point","coordinates":[37.789634,-122.404052]}},{"Name":"StumbleUpon","City":"San Francisco","Latitude":37.775196,"Longitude":-122.419204,"Coordinates":{"type":"Point","coordinates":[37.775196,-122.419204]}},{"Name":"Twitter","City":"San Francisco","Latitude":37.7768052,"Longitude":-122.4169244,"Coordinates":{"type":"Point","coordinates":[37.7768052,-122.4169244]}},{"Name":"Powerset","City":"San Francisco","Latitude":37.778613,"Longitude":-122.395289,"Coordinates":{"type":"Point","coordinates":[37.778613,-122.395289]}},{"Name":"Technorati","City":"San Francisco","Latitude":37.779558,"Longitude":-122.393041,"Coordinates":{"type":"Point","coordinates":[37.779558,-122.393041]}},{"Name":"Kyte","City":"San Francisco","Latitude":37.788482,"Longitude":-122.409173,"Coordinates":{"type":"Point","coordinates":[37.788482,-122.409173]}},{"Name":"Wesabe","City":"San Francisco","Latitude":37.793148,"Longitude":-122.402567,"Coordinates":{"type":"Point","coordinates":[37.793148,-122.402567]}},{"Name":"Prosper","City":"San Francisco","Latitude":37.78976,"Longitude":-122.402524,"Coordinates":{"type":"Point","coordinates":[37.78976,-122.402524]}},{"Name":"Ustream","City":"San Francisco","Latitude":37.392936,"Longitude":-122.07948,"Coordinates":{"type":"Point","coordinates":[37.392936,-122.07948]}},{"Name":"Pownce","City":"San Francisco","Latitude":37.762541,"Longitude":-122.397224,"Coordinates":{"type":"Point","coordinates":[37.762541,-122.397224]}},{"Name":"Revision3","City":"San Francisco","Latitude":37.757758,"Longitude":-122.388243,"Coordinates":{"type":"Point","coordinates":[37.757758,-122.388243]}},{"Name":"CastTV","City":"San Francisco","Latitude":37.780716,"Longitude":-122.393913,"Coordinates":{"type":"Point","coordinates":[37.780716,-122.393913]}},{"Name":"iSkoot","City":"San Francisco","Latitude":37.780134,"Longitude":-122.396744,"Coordinates":{"type":"Point","coordinates":[37.780134,-122.396744]}},{"Name":"blinkx","City":"San Francisco","Latitude":37.793819,"Longitude":-122.395089,"Coordinates":{"type":"Point","coordinates":[37.793819,-122.395089]}},{"Name":"Zooomr","City":"San Francisco","Latitude":37.775196,"Longitude":-122.419204,"Coordinates":{"type":"Point","coordinates":[37.775196,-122.419204]}},{"Name":"Yelp","City":"San Francisco","Latitude":37.786183,"Longitude":-122.402195,"Coordinates":{"type":"Point","coordinates":[37.786183,-122.402195]}},{"Name":"Pageflakes","City":"San Francisco","Latitude":37.758113,"Longitude":-122.414689,"Coordinates":{"type":"Point","coordinates":[37.758113,-122.414689]}},{"Name":"Swivel","City":"San Francisco","Latitude":37.789268,"Longitude":-122.395184,"Coordinates":{"type":"Point","coordinates":[37.789268,-122.395184]}},{"Name":"KickApps","City":"San Francisco","Latitude":37.7891086,"Longitude":-122.4016144,"Coordinates":{"type":"Point","coordinates":[37.7891086,-122.4016144]}},{"Name":"Instructables","City":"San Francisco","Latitude":37.7791761,"Longitude":-122.4058887,"Coordinates":{"type":"Point","coordinates":[37.7791761,-122.4058887]}},{"Name":"BabyCenter","City":"San Francisco","Latitude":37.778076,"Longitude":-122.397977,"Coordinates":{"type":"Point","coordinates":[37.778076,-122.397977]}},{"Name":"Slide","City":"San Francisco","Latitude":37.781427,"Longitude":-122.392144,"Coordinates":{"type":"Point","coordinates":[37.781427,-122.392144]}},{"Name":"Bebo","City":"San Francisco","Latitude":37.782103,"Longitude":-122.401116,"Coordinates":{"type":"Point","coordinates":[37.782103,-122.401116]}},{"Name":"Mashery","City":"San Francisco","Latitude":37.7870842,"Longitude":-122.4038047,"Coordinates":{"type":"Point","coordinates":[37.7870842,-122.4038047]}},{"Name":"Dogster","City":"San Francisco","Latitude":37.762681,"Longitude":-122.400909,"Coordinates":{"type":"Point","coordinates":[37.762681,-122.400909]}},{"Name":"adBrite","City":"San Francisco","Latitude":37.779026,"Longitude":-122.40184,"Coordinates":{"type":"Point","coordinates":[37.779026,-122.40184]}},{"Name":"Loomia","City":"San Francisco","Latitude":37.796396,"Longitude":-122.404869,"Coordinates":{"type":"Point","coordinates":[37.796396,-122.404869]}},{"Name":"Eventbrite","City":"San Francisco","Latitude":37.779507,"Longitude":-122.39071,"Coordinates":{"type":"Point","coordinates":[37.779507,-122.39071]}},{"Name":"Google","City":"San Francisco","Latitude":37.789803,"Longitude":-122.389757,"Coordinates":{"type":"Point","coordinates":[37.789803,-122.389757]}},{"Name":"Seesmic","City":"San Francisco","Latitude":37.775196,"Longitude":-122.419204,"Coordinates":{"type":"Point","coordinates":[37.775196,-122.419204]}},{"Name":"Techmeme","City":"San Francisco","Latitude":37.7618242,"Longitude":-122.3985871,"Coordinates":{"type":"Point","coordinates":[37.7618242,-122.3985871]}},{"Name":"GigaOM","City":"San Francisco","Latitude":37.775196,"Longitude":-122.419204,"Coordinates":{"type":"Point","coordinates":[37.775196,-122.419204]}},{"Name":"Ujogo","City":"San Francisco","Latitude":37.76785,"Longitude":-122.392861,"Coordinates":{"type":"Point","coordinates":[37.76785,-122.392861]}},{"Name":"GoingOn","City":"San Francisco","Latitude":37.782263,"Longitude":-122.392142,"Coordinates":{"type":"Point","coordinates":[37.782263,-122.392142]}},{"Name":"Vast","City":"San Francisco","Latitude":37.787183,"Longitude":-122.397759,"Coordinates":{"type":"Point","coordinates":[37.787183,-122.397759]}},{"Name":"Flixster","City":"San Francisco","Latitude":37.766909,"Longitude":-122.406676,"Coordinates":{"type":"Point","coordinates":[37.766909,-122.406676]}},{"Name":"Piczo","City":"San Francisco","Latitude":37.793703,"Longitude":-122.398479,"Coordinates":{"type":"Point","coordinates":[37.793703,-122.398479]}},{"Name":"PowerReviews","City":"San Francisco","Latitude":37.779558,"Longitude":-122.393041,"Coordinates":{"type":"Point","coordinates":[37.779558,-122.393041]}},{"Name":"hi5","City":"San Francisco","Latitude":37.788668,"Longitude":-122.400558,"Coordinates":{"type":"Point","coordinates":[37.788668,-122.400558]}},{"Name":"Tagged","City":"San Francisco","Latitude":37.7753,"Longitude":-122.4186,"Coordinates":{"type":"Point","coordinates":[37.7753,-122.4186]}},{"Name":"Curse","City":"San Francisco","Latitude":37.787092,"Longitude":-122.399972,"Coordinates":{"type":"Point","coordinates":[37.787092,-122.399972]}},{"Name":"Grockit","City":"San Francisco","Latitude":37.775196,"Longitude":-122.419204,"Coordinates":{"type":"Point","coordinates":[37.775196,-122.419204]}},{"Name":"Kiptronic","City":"San Francisco","Latitude":37.792394,"Longitude":-122.402349,"Coordinates":{"type":"Point","coordinates":[37.792394,-122.402349]}},{"Name":"FeVote","City":"San Francisco","Latitude":37.779392,"Longitude":-122.417928,"Coordinates":{"type":"Point","coordinates":[37.779392,-122.417928]}},{"Name":"eBuddy","City":"San Francisco","Latitude":37.787683,"Longitude":-122.410943,"Coordinates":{"type":"Point","coordinates":[37.787683,-122.410943]}},{"Name":"Reddit","City":"San Francisco","Latitude":37.780883,"Longitude":-122.395257,"Coordinates":{"type":"Point","coordinates":[37.780883,-122.395257]}},{"Name":"Snapfish","City":"San Francisco","Latitude":37.78554,"Longitude":-122.396689,"Coordinates":{"type":"Point","coordinates":[37.78554,-122.396689]}},{"Name":"Viagogo","City":"San Francisco","Latitude":51.500152,"Longitude":-0.126236,"Coordinates":{"type":"Point","coordinates":[51.500152,-0.126236]}},{"Name":"Scrybe","City":"San Francisco","Latitude":40.270666,"Longitude":-74.761403,"Coordinates":{"type":"Point","coordinates":[40.270666,-74.761403]}},{"Name":"Metacafe","City":"San Francisco","Latitude":37.437328,"Longitude":-122.159928,"Coordinates":{"type":"Point","coordinates":[37.437328,-122.159928]}},{"Name":"webcrossing","City":"San Francisco","Latitude":37.794649,"Longitude":-122.399646,"Coordinates":{"type":"Point","coordinates":[37.794649,-122.399646]}},{"Name":"Kontera","City":"San Francisco","Latitude":37.767575,"Longitude":-122.411157,"Coordinates":{"type":"Point","coordinates":[37.767575,-122.411157]}},{"Name":"IODA","City":"San Francisco","Latitude":37.780134,"Longitude":-122.396744,"Coordinates":{"type":"Point","coordinates":[37.780134,-122.396744]}},{"Name":"Dropbox","City":"San Francisco","Latitude":37.7909427,"Longitude":-122.4084994,"Coordinates":{"type":"Point","coordinates":[37.7909427,-122.4084994]}},{"Name":"Weebly","City":"San Francisco","Latitude":37.795555,"Longitude":-122.400729,"Coordinates":{"type":"Point","coordinates":[37.795555,-122.400729]}},{"Name":"Yola","City":"San Francisco","Latitude":37.7911148,"Longitude":-122.3954751,"Coordinates":{"type":"Point","coordinates":[37.7911148,-122.3954751]}},{"Name":"TokBox","City":"San Francisco","Latitude":37.779507,"Longitude":-122.39071,"Coordinates":{"type":"Point","coordinates":[37.779507,-122.39071]}},{"Name":"DanceJam","City":"San Francisco","Latitude":37.781557,"Longitude":-122.407959,"Coordinates":{"type":"Point","coordinates":[37.781557,-122.407959]}},{"Name":"BitTorrent","City":"San Francisco","Latitude":37.790998,"Longitude":-122.394668,"Coordinates":{"type":"Point","coordinates":[37.790998,-122.394668]}},{"Name":"Kongregate","City":"San Francisco","Latitude":37.786942,"Longitude":-122.401245,"Coordinates":{"type":"Point","coordinates":[37.786942,-122.401245]}},{"Name":"Eventbee","City":"San Francisco","Latitude":37.383779,"Longitude":-122.007172,"Coordinates":{"type":"Point","coordinates":[37.383779,-122.007172]}},{"Name":"Guba","City":"San Francisco","Latitude":37.09024,"Longitude":-95.712891,"Coordinates":{"type":"Point","coordinates":[37.09024,-95.712891]}},{"Name":"Pixsy Image Search","City":"San Francisco","Latitude":37.779558,"Longitude":-122.393041,"Coordinates":{"type":"Point","coordinates":[37.779558,-122.393041]}},{"Name":"Kiva","City":"San Francisco","Latitude":37.762125,"Longitude":-122.4147,"Coordinates":{"type":"Point","coordinates":[37.762125,-122.4147]}},{"Name":"Fathom Online","City":"San Francisco","Latitude":37.775196,"Longitude":-122.419204,"Coordinates":{"type":"Point","coordinates":[37.775196,-122.419204]}},{"Name":"Zivity","City":"San Francisco","Latitude":37.789488,"Longitude":-122.397593,"Coordinates":{"type":"Point","coordinates":[37.789488,-122.397593]}},{"Name":"TechCrunch","City":"San Francisco","Latitude":37.4459832,"Longitude":-122.1490582,"Coordinates":{"type":"Point","coordinates":[37.4459832,-122.1490582]}},{"Name":"Mevio","City":"San Francisco","Latitude":37.782263,"Longitude":-122.392142,"Coordinates":{"type":"Point","coordinates":[37.782263,-122.392142]}},{"Name":"DotBlu","City":"San Francisco","Latitude":37.09024,"Longitude":-95.712891,"Coordinates":{"type":"Point","coordinates":[37.09024,-95.712891]}},{"Name":"Atom Entertainment","City":"San Francisco","Latitude":37.790964,"Longitude":-122.401128,"Coordinates":{"type":"Point","coordinates":[37.790964,-122.401128]}},{"Name":"Greystripe","City":"San Francisco","Latitude":37.710677,"Longitude":-122.39323,"Coordinates":{"type":"Point","coordinates":[37.710677,-122.39323]}},{"Name":"Trulia","City":"San Francisco","Latitude":37.766909,"Longitude":-122.406676,"Coordinates":{"type":"Point","coordinates":[37.766909,-122.406676]}},{"Name":"OpenTable","City":"San Francisco","Latitude":37.785647,"Longitude":-122.405265,"Coordinates":{"type":"Point","coordinates":[37.785647,-122.405265]}},{"Name":"Adknowledge","City":"San Francisco","Latitude":37.78866,"Longitude":-122.401406,"Coordinates":{"type":"Point","coordinates":[37.78866,-122.401406]}},{"Name":"MicroPlace","City":"San Francisco","Latitude":37.775196,"Longitude":-122.419204,"Coordinates":{"type":"Point","coordinates":[37.775196,-122.419204]}},{"Name":"Crunchyroll","City":"San Francisco","Latitude":37.781265,"Longitude":-122.393229,"Coordinates":{"type":"Point","coordinates":[37.781265,-122.393229]}},{"Name":"imeem","City":"San Francisco","Latitude":37.779624,"Longitude":-122.391236,"Coordinates":{"type":"Point","coordinates":[37.779624,-122.391236]}},{"Name":"BeFunky","City":"San Francisco","Latitude":37.7749295,"Longitude":-122.4194155,"Coordinates":{"type":"Point","coordinates":[37.7749295,-122.4194155]}},{"Name":"YourStreet","City":"San Francisco","Latitude":37.793742,"Longitude":-122.421341,"Coordinates":{"type":"Point","coordinates":[37.793742,-122.421341]}},{"Name":"TripIt","City":"San Francisco","Latitude":37.764169,"Longitude":-122.402021,"Coordinates":{"type":"Point","coordinates":[37.764169,-122.402021]}},{"Name":"Auctomatic","City":"San Francisco","Latitude":37.786175,"Longitude":-122.389676,"Coordinates":{"type":"Point","coordinates":[37.786175,-122.389676]}},{"Name":"Data360","City":"San Francisco","Latitude":37.799549,"Longitude":-122.306571,"Coordinates":{"type":"Point","coordinates":[37.799549,-122.306571]}},{"Name":"Jawbone","City":"San Francisco","Latitude":37.768708,"Longitude":-122.402866,"Coordinates":{"type":"Point","coordinates":[37.768708,-122.402866]}},{"Name":"Xobni","City":"San Francisco","Latitude":37.789634,"Longitude":-122.404052,"Coordinates":{"type":"Point","coordinates":[37.789634,-122.404052]}},{"Name":"GroupSwim","City":"San Francisco","Latitude":37.779558,"Longitude":-122.393041,"Coordinates":{"type":"Point","coordinates":[37.779558,-122.393041]}},{"Name":"Vestopia","City":"San Francisco","Latitude":37.792262,"Longitude":-122.403486,"Coordinates":{"type":"Point","coordinates":[37.792262,-122.403486]}},{"Name":"3Jam","City":"San Francisco","Latitude":37.765125,"Longitude":-122.4044034,"Coordinates":{"type":"Point","coordinates":[37.765125,-122.4044034]}},{"Name":"Zannel","City":"San Francisco","Latitude":37.775196,"Longitude":-122.419204,"Coordinates":{"type":"Point","coordinates":[37.775196,-122.419204]}},{"Name":"Wikinvest","City":"San Francisco","Latitude":37.775196,"Longitude":-122.419204,"Coordinates":{"type":"Point","coordinates":[37.775196,-122.419204]}},{"Name":"Rupture","City":"San Francisco","Latitude":37.783898,"Longitude":-122.395234,"Coordinates":{"type":"Point","coordinates":[37.783898,-122.395234]}},{"Name":"Whiskey Media","City":"San Francisco","Latitude":37.856331,"Longitude":-122.495222,"Coordinates":{"type":"Point","coordinates":[37.856331,-122.495222]}},{"Name":"SnapLayout","City":"San Francisco","Latitude":37.775196,"Longitude":-122.419204,"Coordinates":{"type":"Point","coordinates":[37.775196,-122.419204]}},{"Name":"The Climate Corporation","City":"San Francisco","Latitude":37.782809,"Longitude":-122.394354,"Coordinates":{"type":"Point","coordinates":[37.782809,-122.394354]}},{"Name":"Blurb","City":"San Francisco","Latitude":37.792968,"Longitude":-122.40414,"Coordinates":{"type":"Point","coordinates":[37.792968,-122.40414]}},{"Name":"Automattic","City":"San Francisco","Latitude":37.744274,"Longitude":-122.421344,"Coordinates":{"type":"Point","coordinates":[37.744274,-122.421344]}},{"Name":"Radar Networks","City":"San Francisco","Latitude":37.7753,"Longitude":-122.398058,"Coordinates":{"type":"Point","coordinates":[37.7753,-122.398058]}},{"Name":"Crusher","City":"San Francisco","Latitude":37.772542,"Longitude":-122.430127,"Coordinates":{"type":"Point","coordinates":[37.772542,-122.430127]}},{"Name":"Marakana","City":"San Francisco","Latitude":37.789498,"Longitude":-122.394265,"Coordinates":{"type":"Point","coordinates":[37.789498,-122.394265]}},{"Name":"tyntec","City":"San Francisco","Latitude":37.7911209,"Longitude":-122.398125,"Coordinates":{"type":"Point","coordinates":[37.7911209,-122.398125]}},{"Name":"eXelate","City":"San Francisco","Latitude":37.787249,"Longitude":-122.3990501,"Coordinates":{"type":"Point","coordinates":[37.787249,-122.3990501]}},{"Name":"Gydget","City":"San Francisco","Latitude":37.791733,"Longitude":-122.398398,"Coordinates":{"type":"Point","coordinates":[37.791733,-122.398398]}},{"Name":"Socializr","City":"San Francisco","Latitude":37.77759,"Longitude":-122.395602,"Coordinates":{"type":"Point","coordinates":[37.77759,-122.395602]}},{"Name":"Songbird","City":"San Francisco","Latitude":37.787126,"Longitude":-122.39783,"Coordinates":{"type":"Point","coordinates":[37.787126,-122.39783]}},{"Name":"Disqus","City":"San Francisco","Latitude":37.786906,"Longitude":-122.397672,"Coordinates":{"type":"Point","coordinates":[37.786906,-122.397672]}},{"Name":"Doppelganger","City":"San Francisco","Latitude":37.762162,"Longitude":-122.413912,"Coordinates":{"type":"Point","coordinates":[37.762162,-122.413912]}},{"Name":"BrightRoll","City":"San Francisco","Latitude":37.794643,"Longitude":-122.401144,"Coordinates":{"type":"Point","coordinates":[37.794643,-122.401144]}},{"Name":"Dipity","City":"San Francisco","Latitude":37.781262,"Longitude":-122.394958,"Coordinates":{"type":"Point","coordinates":[37.781262,-122.394958]}},{"Name":"Podaddies","City":"San Francisco","Latitude":37.7726402,"Longitude":-122.4099154,"Coordinates":{"type":"Point","coordinates":[37.7726402,-122.4099154]}},{"Name":"Adteractive","City":"San Francisco","Latitude":37.78554,"Longitude":-122.396689,"Coordinates":{"type":"Point","coordinates":[37.78554,-122.396689]}},{"Name":"GameLayers","City":"San Francisco","Latitude":37.803847,"Longitude":-122.402468,"Coordinates":{"type":"Point","coordinates":[37.803847,-122.402468]}},{"Name":"beRecruited","City":"San Francisco","Latitude":33.754487,"Longitude":-84.389663,"Coordinates":{"type":"Point","coordinates":[33.754487,-84.389663]}},{"Name":"Splunk","City":"San Francisco","Latitude":37.78274,"Longitude":-122.390945,"Coordinates":{"type":"Point","coordinates":[37.78274,-122.390945]}},{"Name":"Dapper","City":"San Francisco","Latitude":37.7766184,"Longitude":-122.3938931,"Coordinates":{"type":"Point","coordinates":[37.7766184,-122.3938931]}},{"Name":"expensr","City":"San Francisco","Latitude":37.775196,"Longitude":-122.419204,"Coordinates":{"type":"Point","coordinates":[37.775196,-122.419204]}},{"Name":"FFWD Wheels","City":"San Francisco","Latitude":37.775196,"Longitude":-122.419204,"Coordinates":{"type":"Point","coordinates":[37.775196,-122.419204]}},{"Name":"Masala","City":"San Francisco","Latitude":37.09024,"Longitude":-95.712891,"Coordinates":{"type":"Point","coordinates":[37.09024,-95.712891]}},{"Name":"Uversity","City":"San Francisco","Latitude":37.7749295,"Longitude":-122.4194155,"Coordinates":{"type":"Point","coordinates":[37.7749295,-122.4194155]}},{"Name":"LiveJournal","City":"San Francisco","Latitude":37.7799872,"Longitude":-122.3975878,"Coordinates":{"type":"Point","coordinates":[37.7799872,-122.3975878]}},{"Name":"AppJet","City":"San Francisco","Latitude":37.775196,"Longitude":-122.419204,"Coordinates":{"type":"Point","coordinates":[37.775196,-122.419204]}},{"Name":"HubPages","City":"San Francisco","Latitude":37.7876952,"Longitude":-122.3991505,"Coordinates":{"type":"Point","coordinates":[37.7876952,-122.3991505]}},{"Name":"PlayFirst","City":"San Francisco","Latitude":37.790346,"Longitude":-122.40185,"Coordinates":{"type":"Point","coordinates":[37.790346,-122.40185]}},{"Name":"Mobissimo","City":"San Francisco","Latitude":37.78624,"Longitude":-122.39897,"Coordinates":{"type":"Point","coordinates":[37.78624,-122.39897]}},{"Name":"Deem","City":"San Francisco","Latitude":37.559836,"Longitude":-122.271532,"Coordinates":{"type":"Point","coordinates":[37.559836,-122.271532]}},{"Name":"Shozu","City":"San Francisco","Latitude":37.771706,"Longitude":-122.402683,"Coordinates":{"type":"Point","coordinates":[37.771706,-122.402683]}},{"Name":"Causes","City":"San Francisco","Latitude":37.870258,"Longitude":-122.272513,"Coordinates":{"type":"Point","coordinates":[37.870258,-122.272513]}},{"Name":"Scrapblog","City":"San Francisco","Latitude":25.752358,"Longitude":-80.25468,"Coordinates":{"type":"Point","coordinates":[25.752358,-80.25468]}},{"Name":"Meraki","City":"San Francisco","Latitude":37.392443,"Longitude":-122.072517,"Coordinates":{"type":"Point","coordinates":[37.392443,-122.072517]}},{"Name":"Outspark","City":"San Francisco","Latitude":37.775196,"Longitude":-122.419204,"Coordinates":{"type":"Point","coordinates":[37.775196,-122.419204]}},{"Name":"Mogad","City":"San Francisco","Latitude":37.763652,"Longitude":-122.421778,"Coordinates":{"type":"Point","coordinates":[37.763652,-122.421778]}},{"Name":"Joyent","City":"San Francisco","Latitude":37.856743,"Longitude":-122.480153,"Coordinates":{"type":"Point","coordinates":[37.856743,-122.480153]}},{"Name":"NuConomy","City":"San Francisco","Latitude":37.795191,"Longitude":-122.430411,"Coordinates":{"type":"Point","coordinates":[37.795191,-122.430411]}},{"Name":"Widgetbox","City":"San Francisco","Latitude":37.798853,"Longitude":-122.398599,"Coordinates":{"type":"Point","coordinates":[37.798853,-122.398599]}},{"Name":"Zynga","City":"San Francisco","Latitude":37.765158,"Longitude":-122.404234,"Coordinates":{"type":"Point","coordinates":[37.765158,-122.404234]}},{"Name":"Roost","City":"San Francisco","Latitude":37.7891288,"Longitude":-122.4020276,"Coordinates":{"type":"Point","coordinates":[37.7891288,-122.4020276]}},{"Name":"clipsync","City":"San Francisco","Latitude":37.2906027,"Longitude":-121.9317853,"Coordinates":{"type":"Point","coordinates":[37.2906027,-121.9317853]}},{"Name":"Heroku","City":"San Francisco","Latitude":37.775196,"Longitude":-122.419204,"Coordinates":{"type":"Point","coordinates":[37.775196,-122.419204]}},{"Name":"Lookery","City":"San Francisco","Latitude":37.788266,"Longitude":-122.403865,"Coordinates":{"type":"Point","coordinates":[37.788266,-122.403865]}},{"Name":"XLR8 Mobile","City":"San Francisco","Latitude":37.788827,"Longitude":-122.38944,"Coordinates":{"type":"Point","coordinates":[37.788827,-122.38944]}},{"Name":"Craigslist","City":"San Francisco","Latitude":37.762512,"Longitude":-122.46649,"Coordinates":{"type":"Point","coordinates":[37.762512,-122.46649]}},{"Name":"Bia2","City":"San Francisco","Latitude":37.7466655,"Longitude":-122.4428064,"Coordinates":{"type":"Point","coordinates":[37.7466655,-122.4428064]}},{"Name":"Unknown Vector","City":"San Francisco","Latitude":37.790032,"Longitude":-122.404488,"Coordinates":{"type":"Point","coordinates":[37.790032,-122.404488]}},{"Name":"Kazowie","City":"San Francisco","Latitude":37.776467,"Longitude":-122.395792,"Coordinates":{"type":"Point","coordinates":[37.776467,-122.395792]}},{"Name":"What They Like","City":"San Francisco","Latitude":37.7776778,"Longitude":-122.3921102,"Coordinates":{"type":"Point","coordinates":[37.7776778,-122.3921102]}},{"Name":"Pyra Labs","City":"San Francisco","Latitude":37.775196,"Longitude":-122.419204,"Coordinates":{"type":"Point","coordinates":[37.775196,-122.419204]}},{"Name":"ManageMyAdvertising","City":"San Francisco","Latitude":37.798853,"Longitude":-122.398599,"Coordinates":{"type":"Point","coordinates":[37.798853,-122.398599]}},{"Name":"Pivotal Labs","City":"San Francisco","Latitude":37.78691,"Longitude":-122.404403,"Coordinates":{"type":"Point","coordinates":[37.78691,-122.404403]}},{"Name":"Iminta","City":"San Francisco","Latitude":45.6667514,"Longitude":-122.4721542,"Coordinates":{"type":"Point","coordinates":[45.6667514,-122.4721542]}},{"Name":"Three Rings","City":"San Francisco","Latitude":37.775196,"Longitude":-122.419204,"Coordinates":{"type":"Point","coordinates":[37.775196,-122.419204]}},{"Name":"Fat Goose","City":"San Francisco","Latitude":37.7876175,"Longitude":-122.4033943,"Coordinates":{"type":"Point","coordinates":[37.7876175,-122.4033943]}},{"Name":"Chowhound","City":"San Francisco","Latitude":37.7862705,"Longitude":-122.3975827,"Coordinates":{"type":"Point","coordinates":[37.7862705,-122.3975827]}},{"Name":"Coverity","City":"San Francisco","Latitude":37.7759675,"Longitude":-122.3931128,"Coordinates":{"type":"Point","coordinates":[37.7759675,-122.3931128]}},{"Name":"YouNoodle","City":"San Francisco","Latitude":37.7766587,"Longitude":-122.395875,"Coordinates":{"type":"Point","coordinates":[37.7766587,-122.395875]}},{"Name":"doubleTwist","City":"San Francisco","Latitude":37.775196,"Longitude":-122.419204,"Coordinates":{"type":"Point","coordinates":[37.775196,-122.419204]}},{"Name":"Hotwire","City":"San Francisco","Latitude":37.795236,"Longitude":-122.403607,"Coordinates":{"type":"Point","coordinates":[37.795236,-122.403607]}},{"Name":"StubHub","City":"San Francisco","Latitude":37.7892685,"Longitude":-122.3951844,"Coordinates":{"type":"Point","coordinates":[37.7892685,-122.3951844]}},{"Name":"Ad Infuse","City":"San Francisco","Latitude":37.793375,"Longitude":-122.404571,"Coordinates":{"type":"Point","coordinates":[37.793375,-122.404571]}},{"Name":"SendMe","City":"San Francisco","Latitude":37.787126,"Longitude":-122.39783,"Coordinates":{"type":"Point","coordinates":[37.787126,-122.39783]}},{"Name":"Tiny Pictures","City":"San Francisco","Latitude":37.781002,"Longitude":-122.406912,"Coordinates":{"type":"Point","coordinates":[37.781002,-122.406912]}},{"Name":"Flurry","City":"San Francisco","Latitude":37.783046,"Longitude":-122.394067,"Coordinates":{"type":"Point","coordinates":[37.783046,-122.394067]}},{"Name":"Reble","City":"San Francisco","Latitude":37.775196,"Longitude":-122.419204,"Coordinates":{"type":"Point","coordinates":[37.775196,-122.419204]}},{"Name":"The Industry Standard","City":"San Francisco","Latitude":37.783151,"Longitude":-122.393323,"Coordinates":{"type":"Point","coordinates":[37.783151,-122.393323]}},{"Name":"Surf Canyon","City":"San Francisco","Latitude":37.80294,"Longitude":-122.266978,"Coordinates":{"type":"Point","coordinates":[37.80294,-122.266978]}},{"Name":"Fifteen Reasons","City":"San Francisco","Latitude":41.948365,"Longitude":-87.646307,"Coordinates":{"type":"Point","coordinates":[41.948365,-87.646307]}},{"Name":"Bleacher Report","City":"San Francisco","Latitude":37.776467,"Longitude":-122.395792,"Coordinates":{"type":"Point","coordinates":[37.776467,-122.395792]}},{"Name":"Heavy Electrons","City":"San Francisco","Latitude":37.7809512,"Longitude":-122.4025016,"Coordinates":{"type":"Point","coordinates":[37.7809512,-122.4025016]}},{"Name":"Vector Capital","City":"San Francisco","Latitude":37.793473,"Longitude":-122.402667,"Coordinates":{"type":"Point","coordinates":[37.793473,-122.402667]}},{"Name":"Fanpop","City":"San Francisco","Latitude":37.758229,"Longitude":-122.439512,"Coordinates":{"type":"Point","coordinates":[37.758229,-122.439512]}},{"Name":"Sportgenic","City":"San Francisco","Latitude":37.790485,"Longitude":-122.40094,"Coordinates":{"type":"Point","coordinates":[37.790485,-122.40094]}},{"Name":"99designs","City":"San Francisco","Latitude":37.7955307,"Longitude":-122.4005983,"Coordinates":{"type":"Point","coordinates":[37.7955307,-122.4005983]}},{"Name":"LiveRail","City":"San Francisco","Latitude":37.787183,"Longitude":-122.397759,"Coordinates":{"type":"Point","coordinates":[37.787183,-122.397759]}},{"Name":"OpenDNS","City":"San Francisco","Latitude":37.789268,"Longitude":-122.395184,"Coordinates":{"type":"Point","coordinates":[37.789268,-122.395184]}},{"Name":"Minor Studios","City":"San Francisco","Latitude":37.789268,"Longitude":-122.395184,"Coordinates":{"type":"Point","coordinates":[37.789268,-122.395184]}},{"Name":"GoodBarry","City":"San Francisco","Latitude":37.787683,"Longitude":-122.410943,"Coordinates":{"type":"Point","coordinates":[37.787683,-122.410943]}},{"Name":"Lindotiger","City":"San Francisco","Latitude":38.7072,"Longitude":-121.28,"Coordinates":{"type":"Point","coordinates":[38.7072,-121.28]}},{"Name":"Astoria Software","City":"San Francisco","Latitude":37.798684,"Longitude":-122.40264,"Coordinates":{"type":"Point","coordinates":[37.798684,-122.40264]}},{"Name":"Clickpass","City":"San Francisco","Latitude":37.775196,"Longitude":-122.419204,"Coordinates":{"type":"Point","coordinates":[37.775196,-122.419204]}},{"Name":"SearchMe","City":"San Francisco","Latitude":37.793473,"Longitude":-122.402667,"Coordinates":{"type":"Point","coordinates":[37.793473,-122.402667]}},{"Name":"Discovery Engine","City":"San Francisco","Latitude":37.800356,"Longitude":-122.402609,"Coordinates":{"type":"Point","coordinates":[37.800356,-122.402609]}},{"Name":"Cognitive Labs","City":"San Francisco","Latitude":37.386665,"Longitude":-122.084171,"Coordinates":{"type":"Point","coordinates":[37.386665,-122.084171]}},{"Name":"PopularMedia","City":"San Francisco","Latitude":37.767575,"Longitude":-122.411157,"Coordinates":{"type":"Point","coordinates":[37.767575,-122.411157]}},{"Name":"Sprout","City":"San Francisco","Latitude":37.755012,"Longitude":-122.418137,"Coordinates":{"type":"Point","coordinates":[37.755012,-122.418137]}},{"Name":"Snaptalent","City":"San Francisco","Latitude":37.786906,"Longitude":-122.397672,"Coordinates":{"type":"Point","coordinates":[37.786906,-122.397672]}},{"Name":"TeamWork Live","City":"San Francisco","Latitude":37.762583,"Longitude":-122.46487,"Coordinates":{"type":"Point","coordinates":[37.762583,-122.46487]}},{"Name":"Daikana","City":"San Francisco","Latitude":37.796164,"Longitude":-122.420903,"Coordinates":{"type":"Point","coordinates":[37.796164,-122.420903]}},{"Name":"Elastra","City":"San Francisco","Latitude":37.791137,"Longitude":-122.391843,"Coordinates":{"type":"Point","coordinates":[37.791137,-122.391843]}},{"Name":"CITTIO","City":"San Francisco","Latitude":37.7867612,"Longitude":-122.4014585,"Coordinates":{"type":"Point","coordinates":[37.7867612,-122.4014585]}},{"Name":"Webpass","City":"San Francisco","Latitude":37.7834147,"Longitude":-122.4209958,"Coordinates":{"type":"Point","coordinates":[37.7834147,-122.4209958]}},{"Name":"kwiry","City":"San Francisco","Latitude":37.7885714,"Longitude":-122.4035985,"Coordinates":{"type":"Point","coordinates":[37.7885714,-122.4035985]}},{"Name":"MyBlogLog","City":"San Francisco","Latitude":37.775196,"Longitude":-122.419204,"Coordinates":{"type":"Point","coordinates":[37.775196,-122.419204]}},{"Name":"Rapt","City":"San Francisco","Latitude":37.781689,"Longitude":-122.391061,"Coordinates":{"type":"Point","coordinates":[37.781689,-122.391061]}},{"Name":"Ninite","City":"San Francisco","Latitude":37.789349,"Longitude":-122.412893,"Coordinates":{"type":"Point","coordinates":[37.789349,-122.412893]}},{"Name":"Coordinatr","City":"San Francisco","Latitude":37.804477,"Longitude":-122.427021,"Coordinates":{"type":"Point","coordinates":[37.804477,-122.427021]}},{"Name":"Whitenoise Networks","City":"San Francisco","Latitude":37.764188,"Longitude":-122.469343,"Coordinates":{"type":"Point","coordinates":[37.764188,-122.469343]}},{"Name":"Socialmoth","City":"San Francisco","Latitude":37.766,"Longitude":-122.450011,"Coordinates":{"type":"Point","coordinates":[37.766,-122.450011]}},{"Name":"ReadBurner","City":"San Francisco","Latitude":37.80391,"Longitude":-122.4042586,"Coordinates":{"type":"Point","coordinates":[37.80391,-122.4042586]}},{"Name":"Viddyou","City":"San Francisco","Latitude":37.775196,"Longitude":-122.419204,"Coordinates":{"type":"Point","coordinates":[37.775196,-122.419204]}},{"Name":"PopJax","City":"San Francisco","Latitude":37.796216,"Longitude":-122.403755,"Coordinates":{"type":"Point","coordinates":[37.796216,-122.403755]}},{"Name":"Liftopia","City":"San Francisco","Latitude":37.796164,"Longitude":-122.420903,"Coordinates":{"type":"Point","coordinates":[37.796164,-122.420903]}},{"Name":"LookSmart","City":"San Francisco","Latitude":37.781689,"Longitude":-122.391061,"Coordinates":{"type":"Point","coordinates":[37.781689,-122.391061]}},{"Name":"Netbooks","City":"San Francisco","Latitude":37.79471,"Longitude":-122.40195,"Coordinates":{"type":"Point","coordinates":[37.79471,-122.40195]}},{"Name":"SlideShare","City":"San Francisco","Latitude":37.776878,"Longitude":-122.400934,"Coordinates":{"type":"Point","coordinates":[37.776878,-122.400934]}},{"Name":"Wikimedia Foundation","City":"San Francisco","Latitude":37.76785,"Longitude":-122.392839,"Coordinates":{"type":"Point","coordinates":[37.76785,-122.392839]}},{"Name":"vFlyer","City":"San Francisco","Latitude":37.790947,"Longitude":-122.398634,"Coordinates":{"type":"Point","coordinates":[37.790947,-122.398634]}},{"Name":"Allopass","City":"San Francisco","Latitude":37.7561438,"Longitude":-122.4325682,"Coordinates":{"type":"Point","coordinates":[37.7561438,-122.4325682]}},{"Name":"Woopra","City":"San Francisco","Latitude":31.169036,"Longitude":-100.076888,"Coordinates":{"type":"Point","coordinates":[31.169036,-100.076888]}},{"Name":"stickychicken","City":"San Francisco","Latitude":37.775196,"Longitude":-122.419204,"Coordinates":{"type":"Point","coordinates":[37.775196,-122.419204]}},{"Name":"ZEDO","City":"San Francisco","Latitude":37.786464,"Longitude":-122.397819,"Coordinates":{"type":"Point","coordinates":[37.786464,-122.397819]}},{"Name":"Xoopit","City":"San Francisco","Latitude":37.7617955,"Longitude":-122.4092704,"Coordinates":{"type":"Point","coordinates":[37.7617955,-122.4092704]}},{"Name":"Placecast","City":"San Francisco","Latitude":37.773688,"Longitude":-122.423468,"Coordinates":{"type":"Point","coordinates":[37.773688,-122.423468]}},{"Name":"Stylehive","City":"San Francisco","Latitude":37.787646,"Longitude":-122.402759,"Coordinates":{"type":"Point","coordinates":[37.787646,-122.402759]}},{"Name":"Undertone","City":"San Francisco","Latitude":37.792949,"Longitude":-122.398099,"Coordinates":{"type":"Point","coordinates":[37.792949,-122.398099]}},{"Name":"Marin Software","City":"San Francisco","Latitude":37.792083,"Longitude":-122.3946404,"Coordinates":{"type":"Point","coordinates":[37.792083,-122.3946404]}},{"Name":"Huddle","City":"San Francisco","Latitude":37.78236,"Longitude":-122.403256,"Coordinates":{"type":"Point","coordinates":[37.78236,-122.403256]}},{"Name":"Support Intelligence","City":"San Francisco","Latitude":37.767569,"Longitude":-122.42215,"Coordinates":{"type":"Point","coordinates":[37.767569,-122.42215]}},{"Name":"Boxbe","City":"San Francisco","Latitude":37.800209,"Longitude":-122.442592,"Coordinates":{"type":"Point","coordinates":[37.800209,-122.442592]}},{"Name":"Advent Software","City":"San Francisco","Latitude":37.771706,"Longitude":-122.402683,"Coordinates":{"type":"Point","coordinates":[37.771706,-122.402683]}},{"Name":"RichRelevance","City":"San Francisco","Latitude":37.7938969,"Longitude":-122.4000965,"Coordinates":{"type":"Point","coordinates":[37.7938969,-122.4000965]}},{"Name":"Spleak","City":"San Francisco","Latitude":37.787423,"Longitude":-122.400932,"Coordinates":{"type":"Point","coordinates":[37.787423,-122.400932]}},{"Name":"Foxmarks","City":"San Francisco","Latitude":37.775196,"Longitude":-122.419204,"Coordinates":{"type":"Point","coordinates":[37.775196,-122.419204]}},{"Name":"Creative Commons","City":"San Francisco","Latitude":37.788457,"Longitude":-122.399884,"Coordinates":{"type":"Point","coordinates":[37.788457,-122.399884]}},{"Name":"SquareTrade","City":"San Francisco","Latitude":37.789551,"Longitude":-122.40036,"Coordinates":{"type":"Point","coordinates":[37.789551,-122.40036]}},{"Name":"UnitedLayer","City":"San Francisco","Latitude":37.724999,"Longitude":-122.397254,"Coordinates":{"type":"Point","coordinates":[37.724999,-122.397254]}},{"Name":"ServePath","City":"San Francisco","Latitude":37.789803,"Longitude":-122.389757,"Coordinates":{"type":"Point","coordinates":[37.789803,-122.389757]}},{"Name":"Pipl","City":"San Francisco","Latitude":40.081697,"Longitude":-74.212014,"Coordinates":{"type":"Point","coordinates":[40.081697,-74.212014]}},{"Name":"Cutcaster","City":"San Francisco","Latitude":37.79851,"Longitude":-122.457454,"Coordinates":{"type":"Point","coordinates":[37.79851,-122.457454]}},{"Name":"GitHub","City":"San Francisco","Latitude":37.775196,"Longitude":-122.419204,"Coordinates":{"type":"Point","coordinates":[37.775196,-122.419204]}},{"Name":"Heysan","City":"San Francisco","Latitude":37.774997,"Longitude":-122.410076,"Coordinates":{"type":"Point","coordinates":[37.774997,-122.410076]}},{"Name":"Compfight","City":"San Francisco","Latitude":37.775196,"Longitude":-122.419204,"Coordinates":{"type":"Point","coordinates":[37.775196,-122.419204]}},{"Name":"slinkset","City":"San Francisco","Latitude":37.775196,"Longitude":-122.419204,"Coordinates":{"type":"Point","coordinates":[37.775196,-122.419204]}},{"Name":"Globant","City":"San Francisco","Latitude":37.7819286,"Longitude":-122.4041764,"Coordinates":{"type":"Point","coordinates":[37.7819286,-122.4041764]}},{"Name":"Apture","City":"San Francisco","Latitude":37.566042,"Longitude":-122.322954,"Coordinates":{"type":"Point","coordinates":[37.566042,-122.322954]}},{"Name":"Sutros","City":"San Francisco","Latitude":37.756922,"Longitude":-122.42087,"Coordinates":{"type":"Point","coordinates":[37.756922,-122.42087]}},{"Name":"InMobi","City":"San Francisco","Latitude":37.4465496,"Longitude":-122.1709208,"Coordinates":{"type":"Point","coordinates":[37.4465496,-122.1709208]}},{"Name":"Macroaxis","City":"San Francisco","Latitude":37.7896292,"Longitude":-122.3998782,"Coordinates":{"type":"Point","coordinates":[37.7896292,-122.3998782]}},{"Name":"filobite","City":"San Francisco","Latitude":37.775196,"Longitude":-122.419204,"Coordinates":{"type":"Point","coordinates":[37.775196,-122.419204]}},{"Name":"UserVoice","City":"San Francisco","Latitude":36.9751032,"Longitude":-122.0253784,"Coordinates":{"type":"Point","coordinates":[36.9751032,-122.0253784]}},{"Name":"Aardvark","City":"San Francisco","Latitude":37.748676,"Longitude":-122.415813,"Coordinates":{"type":"Point","coordinates":[37.748676,-122.415813]}},{"Name":"GIS Planning","City":"San Francisco","Latitude":37.784137,"Longitude":-122.408646,"Coordinates":{"type":"Point","coordinates":[37.784137,-122.408646]}},{"Name":"SQLstream","City":"San Francisco","Latitude":37.775058,"Longitude":-122.419966,"Coordinates":{"type":"Point","coordinates":[37.775058,-122.419966]}},{"Name":"JobScore","City":"San Francisco","Latitude":37.7881481,"Longitude":-122.3943387,"Coordinates":{"type":"Point","coordinates":[37.7881481,-122.3943387]}},{"Name":"Serious Business","City":"San Francisco","Latitude":37.7893215,"Longitude":-122.4013624,"Coordinates":{"type":"Point","coordinates":[37.7893215,-122.4013624]}},{"Name":"Triggit","City":"San Francisco","Latitude":37.771208,"Longitude":-122.418129,"Coordinates":{"type":"Point","coordinates":[37.771208,-122.418129]}},{"Name":"RateItAll","City":"San Francisco","Latitude":37.755012,"Longitude":-122.418137,"Coordinates":{"type":"Point","coordinates":[37.755012,-122.418137]}},{"Name":"Tealeaf","City":"San Francisco","Latitude":37.791242,"Longitude":-122.397133,"Coordinates":{"type":"Point","coordinates":[37.791242,-122.397133]}},{"Name":"Profy","City":"San Francisco","Latitude":37.775196,"Longitude":-122.419204,"Coordinates":{"type":"Point","coordinates":[37.775196,-122.419204]}},{"Name":"Kabam","City":"San Francisco","Latitude":37.3944561,"Longitude":-122.0785314,"Coordinates":{"type":"Point","coordinates":[37.3944561,-122.0785314]}},{"Name":"mappery","City":"San Francisco","Latitude":37.7717185,"Longitude":-122.4438929,"Coordinates":{"type":"Point","coordinates":[37.7717185,-122.4438929]}},{"Name":"KnowledgeBid","City":"San Francisco","Latitude":37.783383,"Longitude":-122.395708,"Coordinates":{"type":"Point","coordinates":[37.783383,-122.395708]}},{"Name":"AllMyData","City":"San Francisco","Latitude":37.762681,"Longitude":-122.400909,"Coordinates":{"type":"Point","coordinates":[37.762681,-122.400909]}},{"Name":"New Relic","City":"San Francisco","Latitude":37.269175,"Longitude":-119.306607,"Coordinates":{"type":"Point","coordinates":[37.269175,-119.306607]}},{"Name":"Zinch","City":"San Francisco","Latitude":40.234451,"Longitude":-111.658656,"Coordinates":{"type":"Point","coordinates":[40.234451,-111.658656]}},{"Name":"MedHelp","City":"San Francisco","Latitude":37.7746693,"Longitude":-122.415199,"Coordinates":{"type":"Point","coordinates":[37.7746693,-122.415199]}},{"Name":"Yoono","City":"San Francisco","Latitude":37.787204,"Longitude":-122.397884,"Coordinates":{"type":"Point","coordinates":[37.787204,-122.397884]}},{"Name":"Citizen Sports","City":"San Francisco","Latitude":37.777513,"Longitude":-122.397044,"Coordinates":{"type":"Point","coordinates":[37.777513,-122.397044]}},{"Name":"VentureLoop","City":"San Francisco","Latitude":37.775196,"Longitude":-122.419204,"Coordinates":{"type":"Point","coordinates":[37.775196,-122.419204]}},{"Name":"Snapbomb Blog Marketing","City":"San Francisco","Latitude":37.803509,"Longitude":-122.411498,"Coordinates":{"type":"Point","coordinates":[37.803509,-122.411498]}},{"Name":"RemindBlast","City":"San Francisco","Latitude":37.773727,"Longitude":-122.401537,"Coordinates":{"type":"Point","coordinates":[37.773727,-122.401537]}},{"Name":"Oomble","City":"San Francisco","Latitude":37.775196,"Longitude":-122.419204,"Coordinates":{"type":"Point","coordinates":[37.775196,-122.419204]}},{"Name":"Caachi","City":"San Francisco","Latitude":37.7753,"Longitude":-122.4186,"Coordinates":{"type":"Point","coordinates":[37.7753,-122.4186]}},{"Name":"Supercool School","City":"San Francisco","Latitude":37.754332,"Longitude":-122.416804,"Coordinates":{"type":"Point","coordinates":[37.754332,-122.416804]}},{"Name":"EatLime","City":"San Francisco","Latitude":37.7749295,"Longitude":-122.4194155,"Coordinates":{"type":"Point","coordinates":[37.7749295,-122.4194155]}},{"Name":"Catzilla","City":"San Francisco","Latitude":37.798069,"Longitude":-122.43305,"Coordinates":{"type":"Point","coordinates":[37.798069,-122.43305]}},{"Name":"TuneUp","City":"San Francisco","Latitude":37.7654195,"Longitude":-122.4119381,"Coordinates":{"type":"Point","coordinates":[37.7654195,-122.4119381]}},{"Name":"Wavemaker Software","City":"San Francisco","Latitude":37.789518,"Longitude":-122.394265,"Coordinates":{"type":"Point","coordinates":[37.789518,-122.394265]}},{"Name":"Fonemesh","City":"San Francisco","Latitude":37.791128,"Longitude":-122.398126,"Coordinates":{"type":"Point","coordinates":[37.791128,-122.398126]}},{"Name":"Stitcher","City":"San Francisco","Latitude":37.775196,"Longitude":-122.419204,"Coordinates":{"type":"Point","coordinates":[37.775196,-122.419204]}},{"Name":"TerraPass","City":"San Francisco","Latitude":37.787445,"Longitude":-122.397847,"Coordinates":{"type":"Point","coordinates":[37.787445,-122.397847]}},{"Name":"Venture Hacks","City":"San Francisco","Latitude":37.775196,"Longitude":-122.419204,"Coordinates":{"type":"Point","coordinates":[37.775196,-122.419204]}},{"Name":"Zoosk","City":"San Francisco","Latitude":37.7726402,"Longitude":-122.4099154,"Coordinates":{"type":"Point","coordinates":[37.7726402,-122.4099154]}},{"Name":"Transpera","City":"San Francisco","Latitude":37.785792,"Longitude":-122.405081,"Coordinates":{"type":"Point","coordinates":[37.785792,-122.405081]}},{"Name":"Geary Interactive","City":"San Francisco","Latitude":37.7872512,"Longitude":-122.4039768,"Coordinates":{"type":"Point","coordinates":[37.7872512,-122.4039768]}},{"Name":"Flixya","City":"San Francisco","Latitude":37.7764671,"Longitude":-122.3957917,"Coordinates":{"type":"Point","coordinates":[37.7764671,-122.3957917]}},{"Name":"Bizo","City":"San Francisco","Latitude":37.7911186,"Longitude":-122.4011706,"Coordinates":{"type":"Point","coordinates":[37.7911186,-122.4011706]}},{"Name":"Developer Analytics","City":"San Francisco","Latitude":38.764206,"Longitude":-102.788565,"Coordinates":{"type":"Point","coordinates":[38.764206,-102.788565]}},{"Name":"JamBase","City":"San Francisco","Latitude":37.78054,"Longitude":-122.396818,"Coordinates":{"type":"Point","coordinates":[37.78054,-122.396818]}},{"Name":"Adscape","City":"San Francisco","Latitude":37.775196,"Longitude":-122.419204,"Coordinates":{"type":"Point","coordinates":[37.775196,-122.419204]}},{"Name":"RabbleDabble","City":"San Francisco","Latitude":37.798853,"Longitude":-122.398599,"Coordinates":{"type":"Point","coordinates":[37.798853,-122.398599]}},{"Name":"Infectious","City":"San Francisco","Latitude":37.771927,"Longitude":-122.410217,"Coordinates":{"type":"Point","coordinates":[37.771927,-122.410217]}},{"Name":"Etchstar","City":"San Francisco","Latitude":34.091073,"Longitude":-118.367701,"Coordinates":{"type":"Point","coordinates":[34.091073,-118.367701]}},{"Name":"AddictingGames","City":"San Francisco","Latitude":37.790838,"Longitude":-122.40116,"Coordinates":{"type":"Point","coordinates":[37.790838,-122.40116]}},{"Name":"iWin","City":"San Francisco","Latitude":37.781689,"Longitude":-122.391061,"Coordinates":{"type":"Point","coordinates":[37.781689,-122.391061]}},{"Name":"FeedText","City":"San Francisco","Latitude":37.791068,"Longitude":-122.401942,"Coordinates":{"type":"Point","coordinates":[37.791068,-122.401942]}},{"Name":"Zinio","City":"San Francisco","Latitude":37.7915,"Longitude":-122.40045,"Coordinates":{"type":"Point","coordinates":[37.7915,-122.40045]}},{"Name":"PurePlay","City":"San Francisco","Latitude":37.775196,"Longitude":-122.419204,"Coordinates":{"type":"Point","coordinates":[37.775196,-122.419204]}},{"Name":"Aruspex","City":"San Francisco","Latitude":37.790346,"Longitude":-122.40185,"Coordinates":{"type":"Point","coordinates":[37.790346,-122.40185]}},{"Name":"Mekanism","City":"San Francisco","Latitude":37.781264,"Longitude":-122.391515,"Coordinates":{"type":"Point","coordinates":[37.781264,-122.391515]}},{"Name":"SFentrepreneur","City":"San Francisco","Latitude":37.78597,"Longitude":-122.437262,"Coordinates":{"type":"Point","coordinates":[37.78597,-122.437262]}},{"Name":"Cloudmark","City":"San Francisco","Latitude":37.779507,"Longitude":-122.39071,"Coordinates":{"type":"Point","coordinates":[37.779507,-122.39071]}},{"Name":"Rabio","City":"San Francisco","Latitude":37.797126,"Longitude":-122.402968,"Coordinates":{"type":"Point","coordinates":[37.797126,-122.402968]}},{"Name":"TRUSTe","City":"San Francisco","Latitude":37.7886685,"Longitude":-122.4005576,"Coordinates":{"type":"Point","coordinates":[37.7886685,-122.4005576]}},{"Name":"Jambool","City":"San Francisco","Latitude":37.782101,"Longitude":-122.389519,"Coordinates":{"type":"Point","coordinates":[37.782101,-122.389519]}},{"Name":"Offbeat Guides","City":"San Francisco","Latitude":37.788408,"Longitude":-122.405412,"Coordinates":{"type":"Point","coordinates":[37.788408,-122.405412]}},{"Name":"StartForce","City":"San Francisco","Latitude":37.796164,"Longitude":-122.420903,"Coordinates":{"type":"Point","coordinates":[37.796164,-122.420903]}},{"Name":"iProspect","City":"San Francisco","Latitude":37.7819286,"Longitude":-122.4041764,"Coordinates":{"type":"Point","coordinates":[37.7819286,-122.4041764]}},{"Name":"Birthday Alarm","City":"San Francisco","Latitude":37.783834,"Longitude":-122.392063,"Coordinates":{"type":"Point","coordinates":[37.783834,-122.392063]}},{"Name":"Lingro","City":"San Francisco","Latitude":37.775196,"Longitude":-122.419204,"Coordinates":{"type":"Point","coordinates":[37.775196,-122.419204]}},{"Name":"Practice Fusion","City":"San Francisco","Latitude":37.7886717,"Longitude":-122.392725,"Coordinates":{"type":"Point","coordinates":[37.7886717,-122.392725]}},{"Name":"Grid Net","City":"San Francisco","Latitude":37.781265,"Longitude":-122.393229,"Coordinates":{"type":"Point","coordinates":[37.781265,-122.393229]}},{"Name":"Socialcast","City":"San Francisco","Latitude":37.7819267,"Longitude":-122.3932389,"Coordinates":{"type":"Point","coordinates":[37.7819267,-122.3932389]}},{"Name":"GayCities","City":"San Francisco","Latitude":37.759591,"Longitude":-122.435242,"Coordinates":{"type":"Point","coordinates":[37.759591,-122.435242]}},{"Name":"Bizroof","City":"San Francisco","Latitude":37.781249,"Longitude":-122.418829,"Coordinates":{"type":"Point","coordinates":[37.781249,-122.418829]}},{"Name":"iPling","City":"San Francisco","Latitude":37.791391,"Longitude":-122.402859,"Coordinates":{"type":"Point","coordinates":[37.791391,-122.402859]}},{"Name":"Ideal Bite","City":"San Francisco","Latitude":37.781265,"Longitude":-122.393229,"Coordinates":{"type":"Point","coordinates":[37.781265,-122.393229]}},{"Name":"NeighborCity","City":"San Francisco","Latitude":37.775392,"Longitude":-122.412214,"Coordinates":{"type":"Point","coordinates":[37.775392,-122.412214]}},{"Name":"Acteva","City":"San Francisco","Latitude":37.792636,"Longitude":-122.398995,"Coordinates":{"type":"Point","coordinates":[37.792636,-122.398995]}},{"Name":"InsideView","City":"San Francisco","Latitude":37.764169,"Longitude":-122.402021,"Coordinates":{"type":"Point","coordinates":[37.764169,-122.402021]}},{"Name":"Razz","City":"San Francisco","Latitude":37.766909,"Longitude":-122.406676,"Coordinates":{"type":"Point","coordinates":[37.766909,-122.406676]}},{"Name":"NewsOrViews","City":"San Francisco","Latitude":37.780134,"Longitude":-122.396744,"Coordinates":{"type":"Point","coordinates":[37.780134,-122.396744]}},{"Name":"Clickability","City":"San Francisco","Latitude":37.7932747,"Longitude":-122.399929,"Coordinates":{"type":"Point","coordinates":[37.7932747,-122.399929]}},{"Name":"WideOrbit","City":"San Francisco","Latitude":37.7895289,"Longitude":-122.3885899,"Coordinates":{"type":"Point","coordinates":[37.7895289,-122.3885899]}},{"Name":"Razoo","City":"San Francisco","Latitude":38.901544,"Longitude":-77.044256,"Coordinates":{"type":"Point","coordinates":[38.901544,-77.044256]}},{"Name":"Keibi Technologies","City":"San Francisco","Latitude":37.787646,"Longitude":-122.402759,"Coordinates":{"type":"Point","coordinates":[37.787646,-122.402759]}},{"Name":"BayPoint Benefits","City":"San Francisco","Latitude":37.835198,"Longitude":-122.477294,"Coordinates":{"type":"Point","coordinates":[37.835198,-122.477294]}},{"Name":"AdParlor","City":"San Francisco","Latitude":37.78866,"Longitude":-122.401406,"Coordinates":{"type":"Point","coordinates":[37.78866,-122.401406]}},{"Name":"Farallon Geographics","City":"San Francisco","Latitude":37.7878037,"Longitude":-122.4001578,"Coordinates":{"type":"Point","coordinates":[37.7878037,-122.4001578]}},{"Name":"NextAdvisor","City":"San Francisco","Latitude":37.789335,"Longitude":-122.4728,"Coordinates":{"type":"Point","coordinates":[37.789335,-122.4728]}},{"Name":"eBaum's World","City":"San Francisco","Latitude":37.786393,"Longitude":-122.3987745,"Coordinates":{"type":"Point","coordinates":[37.786393,-122.3987745]}},{"Name":"Overstream","City":"San Francisco","Latitude":37.791391,"Longitude":-122.402859,"Coordinates":{"type":"Point","coordinates":[37.791391,-122.402859]}},{"Name":"PodOmatic","City":"San Francisco","Latitude":37.776271,"Longitude":-122.396506,"Coordinates":{"type":"Point","coordinates":[37.776271,-122.396506]}},{"Name":"Applied Operations","City":"San Francisco","Latitude":37.7753,"Longitude":-122.4186,"Coordinates":{"type":"Point","coordinates":[37.7753,-122.4186]}},{"Name":"mental images","City":"San Francisco","Latitude":37.794649,"Longitude":-122.399646,"Coordinates":{"type":"Point","coordinates":[37.794649,-122.399646]}},{"Name":"Alcance Media Group","City":"San Francisco","Latitude":37.791068,"Longitude":-122.401942,"Coordinates":{"type":"Point","coordinates":[37.791068,-122.401942]}},{"Name":"Simply Continuous","City":"San Francisco","Latitude":37.787076,"Longitude":-122.399412,"Coordinates":{"type":"Point","coordinates":[37.787076,-122.399412]}},{"Name":"CleanLoop","City":"San Francisco","Latitude":37.775196,"Longitude":-122.419204,"Coordinates":{"type":"Point","coordinates":[37.775196,-122.419204]}},{"Name":"Posterous","City":"San Francisco","Latitude":37.775196,"Longitude":-122.419204,"Coordinates":{"type":"Point","coordinates":[37.775196,-122.419204]}},{"Name":"Open Places","City":"San Francisco","Latitude":37.758352,"Longitude":-122.398379,"Coordinates":{"type":"Point","coordinates":[37.758352,-122.398379]}},{"Name":"Genbook","City":"San Francisco","Latitude":37.789902,"Longitude":-122.4007791,"Coordinates":{"type":"Point","coordinates":[37.789902,-122.4007791]}},{"Name":"VenJuvo","City":"San Francisco","Latitude":37.796657,"Longitude":-122.403545,"Coordinates":{"type":"Point","coordinates":[37.796657,-122.403545]}},{"Name":"Flowgram","City":"San Francisco","Latitude":37.7710177,"Longitude":-122.4025976,"Coordinates":{"type":"Point","coordinates":[37.7710177,-122.4025976]}},{"Name":"GoGrid","City":"San Francisco","Latitude":37.78932,"Longitude":-122.390058,"Coordinates":{"type":"Point","coordinates":[37.78932,-122.390058]}},{"Name":"Achievers","City":"San Francisco","Latitude":43.637296,"Longitude":-79.425455,"Coordinates":{"type":"Point","coordinates":[43.637296,-79.425455]}},{"Name":"Premier Staffing","City":"San Francisco","Latitude":37.78976,"Longitude":-122.402524,"Coordinates":{"type":"Point","coordinates":[37.78976,-122.402524]}},{"Name":"branchnext","City":"San Francisco","Latitude":37.764169,"Longitude":-122.402021,"Coordinates":{"type":"Point","coordinates":[37.764169,-122.402021]}},{"Name":"Medialets","City":"San Francisco","Latitude":37.775196,"Longitude":-122.419204,"Coordinates":{"type":"Point","coordinates":[37.775196,-122.419204]}},{"Name":"Discovery Mining","City":"San Francisco","Latitude":37.7982385,"Longitude":-122.4587055,"Coordinates":{"type":"Point","coordinates":[37.7982385,-122.4587055]}},{"Name":"SourceSouth","City":"San Francisco","Latitude":37.75788,"Longitude":-122.427476,"Coordinates":{"type":"Point","coordinates":[37.75788,-122.427476]}},{"Name":"Involver","City":"San Francisco","Latitude":37.788653,"Longitude":-122.401333,"Coordinates":{"type":"Point","coordinates":[37.788653,-122.401333]}},{"Name":"EcoFlip","City":"San Francisco","Latitude":37.796164,"Longitude":-122.420903,"Coordinates":{"type":"Point","coordinates":[37.796164,-122.420903]}},{"Name":"ON24","City":"San Francisco","Latitude":37.7850326,"Longitude":-122.4004738,"Coordinates":{"type":"Point","coordinates":[37.7850326,-122.4004738]}},{"Name":"Scavenja","City":"San Francisco","Latitude":37.780134,"Longitude":-122.396744,"Coordinates":{"type":"Point","coordinates":[37.780134,-122.396744]}},{"Name":"Streetline","City":"San Francisco","Latitude":37.782085,"Longitude":-122.409747,"Coordinates":{"type":"Point","coordinates":[37.782085,-122.409747]}},{"Name":"Zendesk","City":"San Francisco","Latitude":55.676294,"Longitude":12.568116,"Coordinates":{"type":"Point","coordinates":[55.676294,12.568116]}},{"Name":"ByteShield","City":"San Francisco","Latitude":37.800948,"Longitude":-122.447292,"Coordinates":{"type":"Point","coordinates":[37.800948,-122.447292]}},{"Name":"trueAnthem","City":"San Francisco","Latitude":37.8059887,"Longitude":-122.4099154,"Coordinates":{"type":"Point","coordinates":[37.8059887,-122.4099154]}},{"Name":"Lexy","City":"San Francisco","Latitude":37.786906,"Longitude":-122.397672,"Coordinates":{"type":"Point","coordinates":[37.786906,-122.397672]}},{"Name":"Hands-On Mobile","City":"San Francisco","Latitude":37.775196,"Longitude":-122.419204,"Coordinates":{"type":"Point","coordinates":[37.775196,-122.419204]}},{"Name":"Carbonetworks","City":"San Francisco","Latitude":37.805289,"Longitude":-122.404448,"Coordinates":{"type":"Point","coordinates":[37.805289,-122.404448]}},{"Name":"Minted","City":"San Francisco","Latitude":37.797435,"Longitude":-122.403175,"Coordinates":{"type":"Point","coordinates":[37.797435,-122.403175]}},{"Name":"Advisor","City":"San Francisco","Latitude":37.7763989,"Longitude":-122.4177157,"Coordinates":{"type":"Point","coordinates":[37.7763989,-122.4177157]}},{"Name":"Kontagent","City":"San Francisco","Latitude":37.7797255,"Longitude":-122.4020593,"Coordinates":{"type":"Point","coordinates":[37.7797255,-122.4020593]}},{"Name":"Appirio","City":"San Francisco","Latitude":37.5552776,"Longitude":-122.2997532,"Coordinates":{"type":"Point","coordinates":[37.5552776,-122.2997532]}},{"Name":"Rofo","City":"San Francisco","Latitude":37.781689,"Longitude":-122.391061,"Coordinates":{"type":"Point","coordinates":[37.781689,-122.391061]}},{"Name":"Allvoices","City":"San Francisco","Latitude":37.791068,"Longitude":-122.401942,"Coordinates":{"type":"Point","coordinates":[37.791068,-122.401942]}},{"Name":"Huddler","City":"San Francisco","Latitude":37.7893215,"Longitude":-122.4013624,"Coordinates":{"type":"Point","coordinates":[37.7893215,-122.4013624]}},{"Name":"Cucku","City":"San Francisco","Latitude":37.743454,"Longitude":-122.41748,"Coordinates":{"type":"Point","coordinates":[37.743454,-122.41748]}},{"Name":"LeadGenesys","City":"San Francisco","Latitude":37.791648,"Longitude":-122.401241,"Coordinates":{"type":"Point","coordinates":[37.791648,-122.401241]}},{"Name":"Zorap","City":"San Francisco","Latitude":37.775196,"Longitude":-122.419204,"Coordinates":{"type":"Point","coordinates":[37.775196,-122.419204]}},{"Name":"ngmoco","City":"San Francisco","Latitude":37.7705096,"Longitude":-122.4015807,"Coordinates":{"type":"Point","coordinates":[37.7705096,-122.4015807]}},{"Name":"ICPA","City":"San Francisco","Latitude":37.787645,"Longitude":-122.423065,"Coordinates":{"type":"Point","coordinates":[37.787645,-122.423065]}},{"Name":"MoneyBackJobs","City":"San Francisco","Latitude":37.7444211,"Longitude":-122.4392075,"Coordinates":{"type":"Point","coordinates":[37.7444211,-122.4392075]}},{"Name":"Sharethrough","City":"San Francisco","Latitude":37.7976785,"Longitude":-122.4018163,"Coordinates":{"type":"Point","coordinates":[37.7976785,-122.4018163]}},{"Name":"Paymo","City":"San Francisco","Latitude":37.798684,"Longitude":-122.40264,"Coordinates":{"type":"Point","coordinates":[37.798684,-122.40264]}},{"Name":"Same Page Capital","City":"San Francisco","Latitude":37.7749295,"Longitude":-122.4194155,"Coordinates":{"type":"Point","coordinates":[37.7749295,-122.4194155]}},{"Name":"Ecolect","City":"San Francisco","Latitude":37.776769,"Longitude":-122.410111,"Coordinates":{"type":"Point","coordinates":[37.776769,-122.410111]}},{"Name":"Recommind","City":"San Francisco","Latitude":37.796903,"Longitude":-122.404904,"Coordinates":{"type":"Point","coordinates":[37.796903,-122.404904]}},{"Name":"Innotas","City":"San Francisco","Latitude":37.787722,"Longitude":-122.3993979,"Coordinates":{"type":"Point","coordinates":[37.787722,-122.3993979]}},{"Name":"Native Instinct","City":"San Francisco","Latitude":37.781021,"Longitude":-122.393528,"Coordinates":{"type":"Point","coordinates":[37.781021,-122.393528]}},{"Name":"Picwing","City":"San Francisco","Latitude":37.774082,"Longitude":-122.395681,"Coordinates":{"type":"Point","coordinates":[37.774082,-122.395681]}},{"Name":"Poll Everywhere","City":"San Francisco","Latitude":41.864917,"Longitude":-87.625271,"Coordinates":{"type":"Point","coordinates":[41.864917,-87.625271]}},{"Name":"PX Interactive","City":"San Francisco","Latitude":37.781754,"Longitude":-122.407709,"Coordinates":{"type":"Point","coordinates":[37.781754,-122.407709]}},{"Name":"Fluther","City":"San Francisco","Latitude":37.758062,"Longitude":-122.418642,"Coordinates":{"type":"Point","coordinates":[37.758062,-122.418642]}},{"Name":"ReTel Technologies","City":"San Francisco","Latitude":41.78942,"Longitude":-87.596232,"Coordinates":{"type":"Point","coordinates":[41.78942,-87.596232]}},{"Name":"Foodzie","City":"San Francisco","Latitude":40.0173513,"Longitude":-105.2773493,"Coordinates":{"type":"Point","coordinates":[40.0173513,-105.2773493]}},{"Name":"Shattered Reality Interactive","City":"San Francisco","Latitude":37.783046,"Longitude":-122.394067,"Coordinates":{"type":"Point","coordinates":[37.783046,-122.394067]}},{"Name":"Lyft","City":"San Francisco","Latitude":37.7899027,"Longitude":-122.4007846,"Coordinates":{"type":"Point","coordinates":[37.7899027,-122.4007846]}},{"Name":"Carticipate","City":"San Francisco","Latitude":37.782101,"Longitude":-122.389519,"Coordinates":{"type":"Point","coordinates":[37.782101,-122.389519]}},{"Name":"Demandbase","City":"San Francisco","Latitude":37.796843,"Longitude":-122.400346,"Coordinates":{"type":"Point","coordinates":[37.796843,-122.400346]}},{"Name":"ShopCastTV","City":"San Francisco","Latitude":37.7881481,"Longitude":-122.3943387,"Coordinates":{"type":"Point","coordinates":[37.7881481,-122.3943387]}},{"Name":"Popego","City":"San Francisco","Latitude":37.778687,"Longitude":-122.421242,"Coordinates":{"type":"Point","coordinates":[37.778687,-122.421242]}},{"Name":"TextMarks","City":"San Francisco","Latitude":37.79289,"Longitude":-122.428193,"Coordinates":{"type":"Point","coordinates":[37.79289,-122.428193]}},{"Name":"plaYce","City":"San Francisco","Latitude":37.80204,"Longitude":-122.438231,"Coordinates":{"type":"Point","coordinates":[37.80204,-122.438231]}},{"Name":"PeopleBrowsr","City":"San Francisco","Latitude":37.459112,"Longitude":-122.142326,"Coordinates":{"type":"Point","coordinates":[37.459112,-122.142326]}},{"Name":"Blogcritics","City":"San Francisco","Latitude":37.8255226,"Longitude":-122.3693356,"Coordinates":{"type":"Point","coordinates":[37.8255226,-122.3693356]}},{"Name":"Twonq","City":"San Francisco","Latitude":37.794124,"Longitude":-122.403223,"Coordinates":{"type":"Point","coordinates":[37.794124,-122.403223]}},{"Name":"Postbox","City":"San Francisco","Latitude":37.758737,"Longitude":-122.388336,"Coordinates":{"type":"Point","coordinates":[37.758737,-122.388336]}},{"Name":"AdRocket","City":"San Francisco","Latitude":37.775196,"Longitude":-122.419204,"Coordinates":{"type":"Point","coordinates":[37.775196,-122.419204]}},{"Name":"GoodGuide","City":"San Francisco","Latitude":37.7983181,"Longitude":-122.4000032,"Coordinates":{"type":"Point","coordinates":[37.7983181,-122.4000032]}},{"Name":"Yammer","City":"San Francisco","Latitude":37.776246,"Longitude":-122.4179223,"Coordinates":{"type":"Point","coordinates":[37.776246,-122.4179223]}},{"Name":"TopNotchThemes","City":"San Francisco","Latitude":37.7753,"Longitude":-122.4186,"Coordinates":{"type":"Point","coordinates":[37.7753,-122.4186]}},{"Name":"Telespree","City":"San Francisco","Latitude":37.777092,"Longitude":-122.391011,"Coordinates":{"type":"Point","coordinates":[37.777092,-122.391011]}},{"Name":"AKQA","City":"San Francisco","Latitude":37.779437,"Longitude":-122.390254,"Coordinates":{"type":"Point","coordinates":[37.779437,-122.390254]}},{"Name":"Milobox","City":"San Francisco","Latitude":37.792979,"Longitude":-122.421242,"Coordinates":{"type":"Point","coordinates":[37.792979,-122.421242]}},{"Name":"ConnectSolutions","City":"San Francisco","Latitude":37.580093,"Longitude":-122.347745,"Coordinates":{"type":"Point","coordinates":[37.580093,-122.347745]}},{"Name":"Lolapps","City":"San Francisco","Latitude":37.7870923,"Longitude":-122.3999719,"Coordinates":{"type":"Point","coordinates":[37.7870923,-122.3999719]}},{"Name":"tripJane","City":"San Francisco","Latitude":37.7881481,"Longitude":-122.3943387,"Coordinates":{"type":"Point","coordinates":[37.7881481,-122.3943387]}},{"Name":"Penguin Computing","City":"San Francisco","Latitude":37.783171,"Longitude":-122.392901,"Coordinates":{"type":"Point","coordinates":[37.783171,-122.392901]}},{"Name":"BallerHouse","City":"San Francisco","Latitude":37.775196,"Longitude":-122.419204,"Coordinates":{"type":"Point","coordinates":[37.775196,-122.419204]}},{"Name":"Pixelpipe","City":"San Francisco","Latitude":37.764395,"Longitude":-122.401024,"Coordinates":{"type":"Point","coordinates":[37.764395,-122.401024]}},{"Name":"Scripped","City":"San Francisco","Latitude":37.7749295,"Longitude":-122.4194155,"Coordinates":{"type":"Point","coordinates":[37.7749295,-122.4194155]}},{"Name":"InnerRewards","City":"San Francisco","Latitude":37.78691,"Longitude":-122.404403,"Coordinates":{"type":"Point","coordinates":[37.78691,-122.404403]}},{"Name":"Fastmetrics","City":"San Francisco","Latitude":37.784137,"Longitude":-122.408646,"Coordinates":{"type":"Point","coordinates":[37.784137,-122.408646]}},{"Name":"Ecolect","City":"San Francisco","Latitude":37.776769,"Longitude":-122.410111,"Coordinates":{"type":"Point","coordinates":[37.776769,-122.410111]}},{"Name":"Recommind","City":"San Francisco","Latitude":37.796903,"Longitude":-122.404904,"Coordinates":{"type":"Point","coordinates":[37.796903,-122.404904]}},{"Name":"Native Instinct","City":"San Francisco","Latitude":37.781021,"Longitude":-122.393528,"Coordinates":{"type":"Point","coordinates":[37.781021,-122.393528]}},{"Name":"Innotas","City":"San Francisco","Latitude":37.787722,"Longitude":-122.3993979,"Coordinates":{"type":"Point","coordinates":[37.787722,-122.3993979]}},{"Name":"Picwing","City":"San Francisco","Latitude":37.774082,"Longitude":-122.395681,"Coordinates":{"type":"Point","coordinates":[37.774082,-122.395681]}},{"Name":"Poll Everywhere","City":"San Francisco","Latitude":41.864917,"Longitude":-87.625271,"Coordinates":{"type":"Point","coordinates":[41.864917,-87.625271]}},{"Name":"PX Interactive","City":"San Francisco","Latitude":37.781754,"Longitude":-122.407709,"Coordinates":{"type":"Point","coordinates":[37.781754,-122.407709]}},{"Name":"Fluther","City":"San Francisco","Latitude":37.758062,"Longitude":-122.418642,"Coordinates":{"type":"Point","coordinates":[37.758062,-122.418642]}},{"Name":"ReTel Technologies","City":"San Francisco","Latitude":41.78942,"Longitude":-87.596232,"Coordinates":{"type":"Point","coordinates":[41.78942,-87.596232]}},{"Name":"Foodzie","City":"San Francisco","Latitude":40.0173513,"Longitude":-105.2773493,"Coordinates":{"type":"Point","coordinates":[40.0173513,-105.2773493]}},{"Name":"Lyft","City":"San Francisco","Latitude":37.7899027,"Longitude":-122.4007846,"Coordinates":{"type":"Point","coordinates":[37.7899027,-122.4007846]}},{"Name":"Shattered Reality Interactive","City":"San Francisco","Latitude":37.783046,"Longitude":-122.394067,"Coordinates":{"type":"Point","coordinates":[37.783046,-122.394067]}},{"Name":"Carticipate","City":"San Francisco","Latitude":37.782101,"Longitude":-122.389519,"Coordinates":{"type":"Point","coordinates":[37.782101,-122.389519]}},{"Name":"Demandbase","City":"San Francisco","Latitude":37.796843,"Longitude":-122.400346,"Coordinates":{"type":"Point","coordinates":[37.796843,-122.400346]}},{"Name":"ShopCastTV","City":"San Francisco","Latitude":37.7881481,"Longitude":-122.3943387,"Coordinates":{"type":"Point","coordinates":[37.7881481,-122.3943387]}},{"Name":"Popego","City":"San Francisco","Latitude":37.778687,"Longitude":-122.421242,"Coordinates":{"type":"Point","coordinates":[37.778687,-122.421242]}},{"Name":"TextMarks","City":"San Francisco","Latitude":37.79289,"Longitude":-122.428193,"Coordinates":{"type":"Point","coordinates":[37.79289,-122.428193]}},{"Name":"plaYce","City":"San Francisco","Latitude":37.80204,"Longitude":-122.438231,"Coordinates":{"type":"Point","coordinates":[37.80204,-122.438231]}},{"Name":"PeopleBrowsr","City":"San Francisco","Latitude":37.459112,"Longitude":-122.142326,"Coordinates":{"type":"Point","coordinates":[37.459112,-122.142326]}},{"Name":"Blogcritics","City":"San Francisco","Latitude":37.8255226,"Longitude":-122.3693356,"Coordinates":{"type":"Point","coordinates":[37.8255226,-122.3693356]}},{"Name":"Twonq","City":"San Francisco","Latitude":37.794124,"Longitude":-122.403223,"Coordinates":{"type":"Point","coordinates":[37.794124,-122.403223]}},{"Name":"Postbox","City":"San Francisco","Latitude":37.758737,"Longitude":-122.388336,"Coordinates":{"type":"Point","coordinates":[37.758737,-122.388336]}},{"Name":"AdRocket","City":"San Francisco","Latitude":37.775196,"Longitude":-122.419204,"Coordinates":{"type":"Point","coordinates":[37.775196,-122.419204]}},{"Name":"GoodGuide","City":"San Francisco","Latitude":37.7983181,"Longitude":-122.4000032,"Coordinates":{"type":"Point","coordinates":[37.7983181,-122.4000032]}},{"Name":"Yammer","City":"San Francisco","Latitude":37.776246,"Longitude":-122.4179223,"Coordinates":{"type":"Point","coordinates":[37.776246,-122.4179223]}},{"Name":"TopNotchThemes","City":"San Francisco","Latitude":37.7753,"Longitude":-122.4186,"Coordinates":{"type":"Point","coordinates":[37.7753,-122.4186]}},{"Name":"Telespree","City":"San Francisco","Latitude":37.777092,"Longitude":-122.391011,"Coordinates":{"type":"Point","coordinates":[37.777092,-122.391011]}},{"Name":"AKQA","City":"San Francisco","Latitude":37.779437,"Longitude":-122.390254,"Coordinates":{"type":"Point","coordinates":[37.779437,-122.390254]}},{"Name":"Milobox","City":"San Francisco","Latitude":37.792979,"Longitude":-122.421242,"Coordinates":{"type":"Point","coordinates":[37.792979,-122.421242]}},{"Name":"ConnectSolutions","City":"San Francisco","Latitude":37.580093,"Longitude":-122.347745,"Coordinates":{"type":"Point","coordinates":[37.580093,-122.347745]}},{"Name":"Lolapps","City":"San Francisco","Latitude":37.7870923,"Longitude":-122.3999719,"Coordinates":{"type":"Point","coordinates":[37.7870923,-122.3999719]}},{"Name":"tripJane","City":"San Francisco","Latitude":37.7881481,"Longitude":-122.3943387,"Coordinates":{"type":"Point","coordinates":[37.7881481,-122.3943387]}},{"Name":"Penguin Computing","City":"San Francisco","Latitude":37.783171,"Longitude":-122.392901,"Coordinates":{"type":"Point","coordinates":[37.783171,-122.392901]}},{"Name":"BallerHouse","City":"San Francisco","Latitude":37.775196,"Longitude":-122.419204,"Coordinates":{"type":"Point","coordinates":[37.775196,-122.419204]}},{"Name":"Pixelpipe","City":"San Francisco","Latitude":37.764395,"Longitude":-122.401024,"Coordinates":{"type":"Point","coordinates":[37.764395,-122.401024]}},{"Name":"Scripped","City":"San Francisco","Latitude":37.7749295,"Longitude":-122.4194155,"Coordinates":{"type":"Point","coordinates":[37.7749295,-122.4194155]}},{"Name":"InnerRewards","City":"San Francisco","Latitude":37.78691,"Longitude":-122.404403,"Coordinates":{"type":"Point","coordinates":[37.78691,-122.404403]}},{"Name":"Fastmetrics","City":"San Francisco","Latitude":37.784137,"Longitude":-122.408646,"Coordinates":{"type":"Point","coordinates":[37.784137,-122.408646]}},{"Name":"Getfugu","City":"San Francisco","Latitude":37.771706,"Longitude":-122.402683,"Coordinates":{"type":"Point","coordinates":[37.771706,-122.402683]}},{"Name":"AppVee","City":"San Francisco","Latitude":37.775196,"Longitude":-122.419204,"Coordinates":{"type":"Point","coordinates":[37.775196,-122.419204]}},{"Name":"Brightstorm","City":"San Francisco","Latitude":37.804619,"Longitude":-122.371203,"Coordinates":{"type":"Point","coordinates":[37.804619,-122.371203]}},{"Name":"Plum","City":"San Francisco","Latitude":37.772938,"Longitude":-122.414952,"Coordinates":{"type":"Point","coordinates":[37.772938,-122.414952]}},{"Name":"Capital West Advisors","City":"San Francisco","Latitude":37.792821,"Longitude":-122.404086,"Coordinates":{"type":"Point","coordinates":[37.792821,-122.404086]}},{"Name":"BoxCycle","City":"San Francisco","Latitude":37.775196,"Longitude":-122.419204,"Coordinates":{"type":"Point","coordinates":[37.775196,-122.419204]}},{"Name":"e-Clips","City":"San Francisco","Latitude":37.761404,"Longitude":-122.420572,"Coordinates":{"type":"Point","coordinates":[37.761404,-122.420572]}},{"Name":"PicApp","City":"San Francisco","Latitude":37.79402,"Longitude":-122.4031242,"Coordinates":{"type":"Point","coordinates":[37.79402,-122.4031242]}},{"Name":"metaio","City":"San Francisco","Latitude":37.590339,"Longitude":-122.341715,"Coordinates":{"type":"Point","coordinates":[37.590339,-122.341715]}},{"Name":"Smule","City":"San Francisco","Latitude":37.779624,"Longitude":-122.391236,"Coordinates":{"type":"Point","coordinates":[37.779624,-122.391236]}},{"Name":"OQO","City":"San Francisco","Latitude":37.759117,"Longitude":-122.415869,"Coordinates":{"type":"Point","coordinates":[37.759117,-122.415869]}},{"Name":"2020systems","City":"San Francisco","Latitude":37.775196,"Longitude":-122.419204,"Coordinates":{"type":"Point","coordinates":[37.775196,-122.419204]}},{"Name":"IntoSpace","City":"San Francisco","Latitude":37.779558,"Longitude":-122.393041,"Coordinates":{"type":"Point","coordinates":[37.779558,-122.393041]}},{"Name":"One Season","City":"San Francisco","Latitude":37.775196,"Longitude":-122.419204,"Coordinates":{"type":"Point","coordinates":[37.775196,-122.419204]}},{"Name":"Mindjet","City":"San Francisco","Latitude":50.095312,"Longitude":9.049981,"Coordinates":{"type":"Point","coordinates":[50.095312,9.049981]}},{"Name":"Papercheck","City":"San Francisco","Latitude":37.7875973,"Longitude":-122.4035368,"Coordinates":{"type":"Point","coordinates":[37.7875973,-122.4035368]}},{"Name":"Reframe It","City":"San Francisco","Latitude":37.782163,"Longitude":-122.400591,"Coordinates":{"type":"Point","coordinates":[37.782163,-122.400591]}},{"Name":"Adblue","City":"San Francisco","Latitude":37.775196,"Longitude":-122.419204,"Coordinates":{"type":"Point","coordinates":[37.775196,-122.419204]}},{"Name":"Vinfolio","City":"San Francisco","Latitude":37.763293,"Longitude":-122.410752,"Coordinates":{"type":"Point","coordinates":[37.763293,-122.410752]}},{"Name":"iRISQ","City":"San Francisco","Latitude":37.790744,"Longitude":-122.39203,"Coordinates":{"type":"Point","coordinates":[37.790744,-122.39203]}},{"Name":"AlphaClone","City":"San Francisco","Latitude":37.79023,"Longitude":-122.403073,"Coordinates":{"type":"Point","coordinates":[37.79023,-122.403073]}},{"Name":"Booyah","City":"San Francisco","Latitude":37.420728,"Longitude":-122.2103414,"Coordinates":{"type":"Point","coordinates":[37.420728,-122.2103414]}},{"Name":"GotGame","City":"San Francisco","Latitude":37.77772,"Longitude":-122.395785,"Coordinates":{"type":"Point","coordinates":[37.77772,-122.395785]}},{"Name":"Formspring","City":"San Francisco","Latitude":39.9052263,"Longitude":-86.0547016,"Coordinates":{"type":"Point","coordinates":[39.9052263,-86.0547016]}},{"Name":"acerno","City":"San Francisco","Latitude":37.775028,"Longitude":-122.419966,"Coordinates":{"type":"Point","coordinates":[37.775028,-122.419966]}},{"Name":"SonicLiving","City":"San Francisco","Latitude":37.8448035,"Longitude":-122.290897,"Coordinates":{"type":"Point","coordinates":[37.8448035,-122.290897]}},{"Name":"iLetYou","City":"San Francisco","Latitude":37.775196,"Longitude":-122.419204,"Coordinates":{"type":"Point","coordinates":[37.775196,-122.419204]}},{"Name":"DocVerse","City":"San Francisco","Latitude":37.788115,"Longitude":-122.397141,"Coordinates":{"type":"Point","coordinates":[37.788115,-122.397141]}},{"Name":"Sparkpr","City":"San Francisco","Latitude":37.7873938,"Longitude":-122.3884419,"Coordinates":{"type":"Point","coordinates":[37.7873938,-122.3884419]}},{"Name":"My Rental Units","City":"San Francisco","Latitude":37.786393,"Longitude":-122.398774,"Coordinates":{"type":"Point","coordinates":[37.786393,-122.398774]}},{"Name":"Tivix","City":"San Francisco","Latitude":37.792303,"Longitude":-122.423132,"Coordinates":{"type":"Point","coordinates":[37.792303,-122.423132]}},{"Name":"Virgance","City":"San Francisco","Latitude":37.781262,"Longitude":-122.394958,"Coordinates":{"type":"Point","coordinates":[37.781262,-122.394958]}},{"Name":"SitePoint","City":"San Francisco","Latitude":37.7753,"Longitude":-122.398058,"Coordinates":{"type":"Point","coordinates":[37.7753,-122.398058]}},{"Name":"WordNetworks","City":"San Francisco","Latitude":37.782886,"Longitude":-122.394635,"Coordinates":{"type":"Point","coordinates":[37.782886,-122.394635]}},{"Name":"faberNovel","City":"San Francisco","Latitude":37.7736667,"Longitude":-122.4148917,"Coordinates":{"type":"Point","coordinates":[37.7736667,-122.4148917]}},{"Name":"148Apps","City":"San Francisco","Latitude":37.775196,"Longitude":-122.419204,"Coordinates":{"type":"Point","coordinates":[37.775196,-122.419204]}},{"Name":"TubeSpree","City":"San Francisco","Latitude":37.781386,"Longitude":-122.421406,"Coordinates":{"type":"Point","coordinates":[37.781386,-122.421406]}},{"Name":"CaptainU","City":"San Francisco","Latitude":41.7894201,"Longitude":-87.5962319,"Coordinates":{"type":"Point","coordinates":[41.7894201,-87.5962319]}},{"Name":"Sapient","City":"San Francisco","Latitude":37.79088,"Longitude":-122.392521,"Coordinates":{"type":"Point","coordinates":[37.79088,-122.392521]}},{"Name":"SalesOnlineWorld","City":"San Francisco","Latitude":37.791128,"Longitude":-122.398126,"Coordinates":{"type":"Point","coordinates":[37.791128,-122.398126]}},{"Name":"Twilio","City":"San Francisco","Latitude":37.7898499,"Longitude":-122.4006831,"Coordinates":{"type":"Point","coordinates":[37.7898499,-122.4006831]}},{"Name":"Codegear","City":"San Francisco","Latitude":37.793949,"Longitude":-122.398062,"Coordinates":{"type":"Point","coordinates":[37.793949,-122.398062]}},{"Name":"RPX Corporation","City":"San Francisco","Latitude":37.794948,"Longitude":-122.397298,"Coordinates":{"type":"Point","coordinates":[37.794948,-122.397298]}},{"Name":"LoopNet","City":"San Francisco","Latitude":37.7759421,"Longitude":-122.3931139,"Coordinates":{"type":"Point","coordinates":[37.7759421,-122.3931139]}},{"Name":"Fanminder","City":"San Francisco","Latitude":37.3792486,"Longitude":-122.1151274,"Coordinates":{"type":"Point","coordinates":[37.3792486,-122.1151274]}},{"Name":"ZingSale","City":"San Francisco","Latitude":32.718834,"Longitude":-117.163841,"Coordinates":{"type":"Point","coordinates":[32.718834,-117.163841]}},{"Name":"Open Mountain","City":"San Francisco","Latitude":37.795276,"Longitude":-122.429788,"Coordinates":{"type":"Point","coordinates":[37.795276,-122.429788]}},{"Name":"ThoughtWorks Studios","City":"San Francisco","Latitude":37.793819,"Longitude":-122.395089,"Coordinates":{"type":"Point","coordinates":[37.793819,-122.395089]}},{"Name":"MotionApps","City":"San Francisco","Latitude":37.7845627,"Longitude":-122.3963738,"Coordinates":{"type":"Point","coordinates":[37.7845627,-122.3963738]}},{"Name":"Matter Network","City":"San Francisco","Latitude":37.7618242,"Longitude":-122.3985871,"Coordinates":{"type":"Point","coordinates":[37.7618242,-122.3985871]}},{"Name":"Connectize","City":"San Francisco","Latitude":37.775196,"Longitude":-122.419204,"Coordinates":{"type":"Point","coordinates":[37.775196,-122.419204]}},{"Name":"Sojern","City":"San Francisco","Latitude":41.238038,"Longitude":-96.183033,"Coordinates":{"type":"Point","coordinates":[41.238038,-96.183033]}},{"Name":"ARX","City":"San Francisco","Latitude":37.7809512,"Longitude":-122.4025016,"Coordinates":{"type":"Point","coordinates":[37.7809512,-122.4025016]}},{"Name":"Psolenoid","City":"San Francisco","Latitude":37.5401432,"Longitude":-122.2945885,"Coordinates":{"type":"Point","coordinates":[37.5401432,-122.2945885]}},{"Name":"EVault","City":"San Francisco","Latitude":37.78505,"Longitude":-122.399817,"Coordinates":{"type":"Point","coordinates":[37.78505,-122.399817]}},{"Name":"Circle of Moms","City":"San Francisco","Latitude":37.7890183,"Longitude":-122.3915063,"Coordinates":{"type":"Point","coordinates":[37.7890183,-122.3915063]}},{"Name":"YieldBuild","City":"San Francisco","Latitude":37.7877967,"Longitude":-122.3989376,"Coordinates":{"type":"Point","coordinates":[37.7877967,-122.3989376]}},{"Name":"Soma Networks","City":"San Francisco","Latitude":37.7710402,"Longitude":-122.4026325,"Coordinates":{"type":"Point","coordinates":[37.7710402,-122.4026325]}},{"Name":"Silicon Color","City":"San Francisco","Latitude":37.783171,"Longitude":-122.392901,"Coordinates":{"type":"Point","coordinates":[37.783171,-122.392901]}},{"Name":"Snappr","City":"San Francisco","Latitude":37.762718,"Longitude":-122.414259,"Coordinates":{"type":"Point","coordinates":[37.762718,-122.414259]}},{"Name":"StartupAgents","City":"San Francisco","Latitude":37.775196,"Longitude":-122.419204,"Coordinates":{"type":"Point","coordinates":[37.775196,-122.419204]}},{"Name":"MacArthur Associates","City":"San Francisco","Latitude":37.789778,"Longitude":-122.401736,"Coordinates":{"type":"Point","coordinates":[37.789778,-122.401736]}},{"Name":"Coveroo","City":"San Francisco","Latitude":37.770067,"Longitude":-122.407603,"Coordinates":{"type":"Point","coordinates":[37.770067,-122.407603]}},{"Name":"Clikthrough","City":"San Francisco","Latitude":37.7965781,"Longitude":-122.4022856,"Coordinates":{"type":"Point","coordinates":[37.7965781,-122.4022856]}},{"Name":"Qitera","City":"San Francisco","Latitude":37.7581148,"Longitude":-122.4184108,"Coordinates":{"type":"Point","coordinates":[37.7581148,-122.4184108]}},{"Name":"Commercial Partners","City":"San Francisco","Latitude":37.792796,"Longitude":-122.401353,"Coordinates":{"type":"Point","coordinates":[37.792796,-122.401353]}},{"Name":"SenSage","City":"San Francisco","Latitude":37.785655,"Longitude":-122.398393,"Coordinates":{"type":"Point","coordinates":[37.785655,-122.398393]}},{"Name":"Jaspersoft","City":"San Francisco","Latitude":37.765388,"Longitude":-122.403111,"Coordinates":{"type":"Point","coordinates":[37.765388,-122.403111]}},{"Name":"Indee","City":"San Francisco","Latitude":37.8053241,"Longitude":-122.4052761,"Coordinates":{"type":"Point","coordinates":[37.8053241,-122.4052761]}},{"Name":"Envivio","City":"San Francisco","Latitude":37.665469,"Longitude":-122.38222,"Coordinates":{"type":"Point","coordinates":[37.665469,-122.38222]}},{"Name":"AMP Consulting","City":"San Francisco","Latitude":37.7898499,"Longitude":-122.4006831,"Coordinates":{"type":"Point","coordinates":[37.7898499,-122.4006831]}},{"Name":"SeeSaw Networks","City":"San Francisco","Latitude":37.791564,"Longitude":-122.399981,"Coordinates":{"type":"Point","coordinates":[37.791564,-122.399981]}},{"Name":"NaturalPath Media","City":"San Francisco","Latitude":37.787247,"Longitude":-122.399959,"Coordinates":{"type":"Point","coordinates":[37.787247,-122.399959]}},{"Name":"Klout","City":"San Francisco","Latitude":34.0497638,"Longitude":-118.2474287,"Coordinates":{"type":"Point","coordinates":[34.0497638,-118.2474287]}},{"Name":"DailyLit","City":"San Francisco","Latitude":40.9519444,"Longitude":-73.7360671,"Coordinates":{"type":"Point","coordinates":[40.9519444,-73.7360671]}},{"Name":"Mocana","City":"San Francisco","Latitude":37.793783,"Longitude":-122.401001,"Coordinates":{"type":"Point","coordinates":[37.793783,-122.401001]}},{"Name":"Kaplan Index","City":"San Francisco","Latitude":37.775196,"Longitude":-122.419204,"Coordinates":{"type":"Point","coordinates":[37.775196,-122.419204]}},{"Name":"LiveVox","City":"San Francisco","Latitude":37.794643,"Longitude":-122.401144,"Coordinates":{"type":"Point","coordinates":[37.794643,-122.401144]}},{"Name":"Jar Media","City":"San Francisco","Latitude":37.80426,"Longitude":-122.433866,"Coordinates":{"type":"Point","coordinates":[37.80426,-122.433866]}},{"Name":"Fuego Nation","City":"San Francisco","Latitude":37.775196,"Longitude":-122.419204,"Coordinates":{"type":"Point","coordinates":[37.775196,-122.419204]}},{"Name":"Clarabridge","City":"San Francisco","Latitude":37.791402,"Longitude":-122.402844,"Coordinates":{"type":"Point","coordinates":[37.791402,-122.402844]}},{"Name":"CrowdFlower","City":"San Francisco","Latitude":37.7652755,"Longitude":-122.4204782,"Coordinates":{"type":"Point","coordinates":[37.7652755,-122.4204782]}},{"Name":"Double Fusion","City":"San Francisco","Latitude":37.7887135,"Longitude":-122.3927145,"Coordinates":{"type":"Point","coordinates":[37.7887135,-122.3927145]}},{"Name":"5th Finger","City":"San Francisco","Latitude":37.7900992,"Longitude":-122.4021988,"Coordinates":{"type":"Point","coordinates":[37.7900992,-122.4021988]}},{"Name":"Mobillcash","City":"San Francisco","Latitude":37.7753,"Longitude":-122.4186,"Coordinates":{"type":"Point","coordinates":[37.7753,-122.4186]}},{"Name":"SmartTurn","City":"San Francisco","Latitude":37.789801,"Longitude":-122.395327,"Coordinates":{"type":"Point","coordinates":[37.789801,-122.395327]}},{"Name":"SpongeFish","City":"San Francisco","Latitude":37.7800788,"Longitude":-122.3943096,"Coordinates":{"type":"Point","coordinates":[37.7800788,-122.3943096]}},{"Name":"NorthStar Systems International","City":"San Francisco","Latitude":37.789551,"Longitude":-122.40036,"Coordinates":{"type":"Point","coordinates":[37.789551,-122.40036]}},{"Name":"Roundbox","City":"San Francisco","Latitude":37.7864636,"Longitude":-122.3978187,"Coordinates":{"type":"Point","coordinates":[37.7864636,-122.3978187]}},{"Name":"SQA Solution","City":"San Francisco","Latitude":37.7618242,"Longitude":-122.3985871,"Coordinates":{"type":"Point","coordinates":[37.7618242,-122.3985871]}},{"Name":"LOO-LEE","City":"San Francisco","Latitude":37.777145,"Longitude":-122.471044,"Coordinates":{"type":"Point","coordinates":[37.777145,-122.471044]}},{"Name":"Focus","City":"San Francisco","Latitude":37.793949,"Longitude":-122.398062,"Coordinates":{"type":"Point","coordinates":[37.793949,-122.398062]}},{"Name":"BrightTALK","City":"San Francisco","Latitude":37.791128,"Longitude":-122.398126,"Coordinates":{"type":"Point","coordinates":[37.791128,-122.398126]}},{"Name":"Heyzap","City":"San Francisco","Latitude":37.7905538,"Longitude":-122.4041485,"Coordinates":{"type":"Point","coordinates":[37.7905538,-122.4041485]}},{"Name":"Tripbase","City":"San Francisco","Latitude":37.437328,"Longitude":-122.159928,"Coordinates":{"type":"Point","coordinates":[37.437328,-122.159928]}},{"Name":"Pulse Entertainment","City":"San Francisco","Latitude":37.796396,"Longitude":-122.404869,"Coordinates":{"type":"Point","coordinates":[37.796396,-122.404869]}},{"Name":"Meez","City":"San Francisco","Latitude":37.785271,"Longitude":-122.397582,"Coordinates":{"type":"Point","coordinates":[37.785271,-122.397582]}},{"Name":"Donnorwood Media","City":"San Francisco","Latitude":37.785271,"Longitude":-122.397582,"Coordinates":{"type":"Point","coordinates":[37.785271,-122.397582]}},{"Name":"Universal Curve","City":"San Francisco","Latitude":37.775196,"Longitude":-122.419204,"Coordinates":{"type":"Point","coordinates":[37.775196,-122.419204]}},{"Name":"Plausible Labs Cooperative","City":"San Francisco","Latitude":37.764895,"Longitude":-122.446967,"Coordinates":{"type":"Point","coordinates":[37.764895,-122.446967]}},{"Name":"LesConcierges","City":"San Francisco","Latitude":37.789518,"Longitude":-122.394265,"Coordinates":{"type":"Point","coordinates":[37.789518,-122.394265]}},{"Name":"Skout","City":"San Francisco","Latitude":37.7800539,"Longitude":-122.3912492,"Coordinates":{"type":"Point","coordinates":[37.7800539,-122.3912492]}},{"Name":"CyberArts","City":"San Francisco","Latitude":37.737609,"Longitude":-122.435399,"Coordinates":{"type":"Point","coordinates":[37.737609,-122.435399]}},{"Name":"ScramblerMail","City":"San Francisco","Latitude":37.79998,"Longitude":-122.440579,"Coordinates":{"type":"Point","coordinates":[37.79998,-122.440579]}},{"Name":"Granicus","City":"San Francisco","Latitude":37.787445,"Longitude":-122.397847,"Coordinates":{"type":"Point","coordinates":[37.787445,-122.397847]}},{"Name":"Genstar Capital","City":"San Francisco","Latitude":37.795263,"Longitude":-122.396123,"Coordinates":{"type":"Point","coordinates":[37.795263,-122.396123]}},{"Name":"\/community","City":"San Francisco","Latitude":37.7884349,"Longitude":-122.4038185,"Coordinates":{"type":"Point","coordinates":[37.7884349,-122.4038185]}},{"Name":"Bolt Creative","City":"San Francisco","Latitude":37.775196,"Longitude":-122.419204,"Coordinates":{"type":"Point","coordinates":[37.775196,-122.419204]}},{"Name":"Decorati","City":"San Francisco","Latitude":37.7870923,"Longitude":-122.3999719,"Coordinates":{"type":"Point","coordinates":[37.7870923,-122.3999719]}},{"Name":"Glu Mobile","City":"San Francisco","Latitude":37.7911371,"Longitude":-122.3973539,"Coordinates":{"type":"Point","coordinates":[37.7911371,-122.3973539]}},{"Name":"Neocase Software","City":"San Francisco","Latitude":37.785655,"Longitude":-122.398393,"Coordinates":{"type":"Point","coordinates":[37.785655,-122.398393]}},{"Name":"Riverbed Technology","City":"San Francisco","Latitude":37.7892685,"Longitude":-122.3951844,"Coordinates":{"type":"Point","coordinates":[37.7892685,-122.3951844]}},{"Name":"ZVUE","City":"San Francisco","Latitude":37.772386,"Longitude":-122.405756,"Coordinates":{"type":"Point","coordinates":[37.772386,-122.405756]}},{"Name":"CodeGlide","City":"San Francisco","Latitude":37.7934643,"Longitude":-122.3979712,"Coordinates":{"type":"Point","coordinates":[37.7934643,-122.3979712]}},{"Name":"Brightidea","City":"San Francisco","Latitude":37.7793652,"Longitude":-122.3952515,"Coordinates":{"type":"Point","coordinates":[37.7793652,-122.3952515]}},{"Name":"KODA","City":"San Francisco","Latitude":37.788796,"Longitude":-122.40971,"Coordinates":{"type":"Point","coordinates":[37.788796,-122.40971]}},{"Name":"Visage Mobile","City":"San Francisco","Latitude":37.795141,"Longitude":-122.401194,"Coordinates":{"type":"Point","coordinates":[37.795141,-122.401194]}},{"Name":"ClerkDogs","City":"San Francisco","Latitude":37.7581148,"Longitude":-122.4184108,"Coordinates":{"type":"Point","coordinates":[37.7581148,-122.4184108]}},{"Name":"AdaptiveAds","City":"San Francisco","Latitude":37.7875973,"Longitude":-122.4035368,"Coordinates":{"type":"Point","coordinates":[37.7875973,-122.4035368]}},{"Name":"Socialize","City":"San Francisco","Latitude":38.88521,"Longitude":-76.998641,"Coordinates":{"type":"Point","coordinates":[38.88521,-76.998641]}},{"Name":"Sustainable Life Media","City":"San Francisco","Latitude":37.577818,"Longitude":-122.344445,"Coordinates":{"type":"Point","coordinates":[37.577818,-122.344445]}},{"Name":"McKesson Surgical Solutions","City":"San Francisco","Latitude":37.7891259,"Longitude":-122.4020296,"Coordinates":{"type":"Point","coordinates":[37.7891259,-122.4020296]}},{"Name":"Sensor Analytics","City":"San Francisco","Latitude":37.775196,"Longitude":-122.419204,"Coordinates":{"type":"Point","coordinates":[37.775196,-122.419204]}},{"Name":"MediaMelon","City":"San Francisco","Latitude":37.792968,"Longitude":-122.40414,"Coordinates":{"type":"Point","coordinates":[37.792968,-122.40414]}},{"Name":"Fortumo","City":"San Francisco","Latitude":59.42145,"Longitude":24.8021233,"Coordinates":{"type":"Point","coordinates":[59.42145,24.8021233]}},{"Name":"Eightfold Logic","City":"San Francisco","Latitude":37.7870841,"Longitude":-122.4010675,"Coordinates":{"type":"Point","coordinates":[37.7870841,-122.4010675]}},{"Name":"Headline Shirts","City":"San Francisco","Latitude":37.758104,"Longitude":-122.410304,"Coordinates":{"type":"Point","coordinates":[37.758104,-122.410304]}},{"Name":"Jobnob","City":"San Francisco","Latitude":37.7440202,"Longitude":-122.4219405,"Coordinates":{"type":"Point","coordinates":[37.7440202,-122.4219405]}},{"Name":"PaperG","City":"San Francisco","Latitude":37.7905948,"Longitude":-122.406111,"Coordinates":{"type":"Point","coordinates":[37.7905948,-122.406111]}},{"Name":"3Degrees","City":"San Francisco","Latitude":37.7968492,"Longitude":-122.457623,"Coordinates":{"type":"Point","coordinates":[37.7968492,-122.457623]}},{"Name":"Startup Revival","City":"San Francisco","Latitude":37.775196,"Longitude":-122.419204,"Coordinates":{"type":"Point","coordinates":[37.775196,-122.419204]}},{"Name":"Fliggo","City":"San Francisco","Latitude":37.775196,"Longitude":-122.419204,"Coordinates":{"type":"Point","coordinates":[37.775196,-122.419204]}},{"Name":"Meedan","City":"San Francisco","Latitude":37.786317,"Longitude":-122.422503,"Coordinates":{"type":"Point","coordinates":[37.786317,-122.422503]}},{"Name":"Diomede Storage","City":"San Francisco","Latitude":37.7753,"Longitude":-122.4186,"Coordinates":{"type":"Point","coordinates":[37.7753,-122.4186]}},{"Name":"Cloudize","City":"San Francisco","Latitude":37.793473,"Longitude":-122.402667,"Coordinates":{"type":"Point","coordinates":[37.793473,-122.402667]}},{"Name":"JustGive","City":"San Francisco","Latitude":37.789833,"Longitude":-122.405863,"Coordinates":{"type":"Point","coordinates":[37.789833,-122.405863]}},{"Name":"Always Innovating","City":"San Francisco","Latitude":37.48413,"Longitude":-122.169472,"Coordinates":{"type":"Point","coordinates":[37.48413,-122.169472]}},{"Name":"Vanno","City":"San Francisco","Latitude":37.796216,"Longitude":-122.403755,"Coordinates":{"type":"Point","coordinates":[37.796216,-122.403755]}},{"Name":"TechWeb","City":"San Francisco","Latitude":37.784132,"Longitude":-122.395913,"Coordinates":{"type":"Point","coordinates":[37.784132,-122.395913]}},{"Name":"Workbridge Associates","City":"San Francisco","Latitude":37.789778,"Longitude":-122.401736,"Coordinates":{"type":"Point","coordinates":[37.789778,-122.401736]}},{"Name":"Jobspring Partners","City":"San Francisco","Latitude":37.788653,"Longitude":-122.401333,"Coordinates":{"type":"Point","coordinates":[37.788653,-122.401333]}},{"Name":"MyLikes","City":"San Francisco","Latitude":37.777995,"Longitude":-122.408914,"Coordinates":{"type":"Point","coordinates":[37.777995,-122.408914]}},{"Name":"The Vertical Action Group","City":"San Francisco","Latitude":37.7983181,"Longitude":-122.4000032,"Coordinates":{"type":"Point","coordinates":[37.7983181,-122.4000032]}},{"Name":"PerformLine","City":"San Francisco","Latitude":37.7829746,"Longitude":-122.4079619,"Coordinates":{"type":"Point","coordinates":[37.7829746,-122.4079619]}},{"Name":"Unity Technologies","City":"San Francisco","Latitude":55.6924605,"Longitude":12.530107,"Coordinates":{"type":"Point","coordinates":[55.6924605,12.530107]}},{"Name":"WikiPock","City":"San Francisco","Latitude":37.7751779,"Longitude":-122.4156988,"Coordinates":{"type":"Point","coordinates":[37.7751779,-122.4156988]}},{"Name":"North by South","City":"San Francisco","Latitude":37.776295,"Longitude":-122.409893,"Coordinates":{"type":"Point","coordinates":[37.776295,-122.409893]}},{"Name":"ITDatabase","City":"San Francisco","Latitude":37.778545,"Longitude":-122.437716,"Coordinates":{"type":"Point","coordinates":[37.778545,-122.437716]}},{"Name":"SuperSecret","City":"San Francisco","Latitude":37.7775896,"Longitude":-122.3956019,"Coordinates":{"type":"Point","coordinates":[37.7775896,-122.3956019]}},{"Name":"IBWIRE Inc","City":"San Francisco","Latitude":37.7944822,"Longitude":-122.4030739,"Coordinates":{"type":"Point","coordinates":[37.7944822,-122.4030739]}},{"Name":"Home-Account","City":"San Francisco","Latitude":37.778551,"Longitude":-122.391686,"Coordinates":{"type":"Point","coordinates":[37.778551,-122.391686]}},{"Name":"MCLA The Lax Mag","City":"San Francisco","Latitude":37.783993,"Longitude":-122.434564,"Coordinates":{"type":"Point","coordinates":[37.783993,-122.434564]}},{"Name":"Fan Centric","City":"San Francisco","Latitude":37.7805399,"Longitude":-122.3968175,"Coordinates":{"type":"Point","coordinates":[37.7805399,-122.3968175]}},{"Name":"CleanTechies","City":"San Francisco","Latitude":37.7717185,"Longitude":-122.4438929,"Coordinates":{"type":"Point","coordinates":[37.7717185,-122.4438929]}},{"Name":"CoTweet","City":"San Francisco","Latitude":37.7405936,"Longitude":-122.3764714,"Coordinates":{"type":"Point","coordinates":[37.7405936,-122.3764714]}},{"Name":"Bomgar","City":"San Francisco","Latitude":37.791128,"Longitude":-122.398126,"Coordinates":{"type":"Point","coordinates":[37.791128,-122.398126]}},{"Name":"Twazzup","City":"San Francisco","Latitude":37.775196,"Longitude":-122.419204,"Coordinates":{"type":"Point","coordinates":[37.775196,-122.419204]}},{"Name":"Samasource","City":"San Francisco","Latitude":37.778991,"Longitude":-122.401803,"Coordinates":{"type":"Point","coordinates":[37.778991,-122.401803]}},{"Name":"Kaseya","City":"San Francisco","Latitude":37.791575,"Longitude":-122.39339,"Coordinates":{"type":"Point","coordinates":[37.791575,-122.39339]}},{"Name":"Thrillcall","City":"San Francisco","Latitude":37.792324,"Longitude":-122.401497,"Coordinates":{"type":"Point","coordinates":[37.792324,-122.401497]}},{"Name":"Shopseen","City":"San Francisco","Latitude":37.772323,"Longitude":-122.214897,"Coordinates":{"type":"Point","coordinates":[37.772323,-122.214897]}},{"Name":"MyCollegeCalendar","City":"San Francisco","Latitude":37.7726402,"Longitude":-122.4099154,"Coordinates":{"type":"Point","coordinates":[37.7726402,-122.4099154]}},{"Name":"Riviera Partners","City":"San Francisco","Latitude":37.7766184,"Longitude":-122.3938931,"Coordinates":{"type":"Point","coordinates":[37.7766184,-122.3938931]}},{"Name":"vLinx","City":"San Francisco","Latitude":37.8047037,"Longitude":-122.4134434,"Coordinates":{"type":"Point","coordinates":[37.8047037,-122.4134434]}},{"Name":"myGreek","City":"San Francisco","Latitude":37.772287,"Longitude":-122.42044,"Coordinates":{"type":"Point","coordinates":[37.772287,-122.42044]}},{"Name":"Bamboudesign","City":"San Francisco","Latitude":37.775087,"Longitude":-122.415199,"Coordinates":{"type":"Point","coordinates":[37.775087,-122.415199]}},{"Name":"PB Strategic Consultancy","City":"San Francisco","Latitude":37.7581148,"Longitude":-122.4184108,"Coordinates":{"type":"Point","coordinates":[37.7581148,-122.4184108]}},{"Name":"Bluewolf","City":"San Francisco","Latitude":37.79215,"Longitude":-122.394,"Coordinates":{"type":"Point","coordinates":[37.79215,-122.394]}},{"Name":"Birst","City":"San Francisco","Latitude":37.789471,"Longitude":-122.404113,"Coordinates":{"type":"Point","coordinates":[37.789471,-122.404113]}},{"Name":"NaturalMotion","City":"San Francisco","Latitude":37.7875304,"Longitude":-122.3989996,"Coordinates":{"type":"Point","coordinates":[37.7875304,-122.3989996]}},{"Name":"LendingKarma","City":"San Francisco","Latitude":37.7753,"Longitude":-122.4186,"Coordinates":{"type":"Point","coordinates":[37.7753,-122.4186]}},{"Name":"Netbiscuits","City":"San Francisco","Latitude":37.7550372,"Longitude":-122.4264417,"Coordinates":{"type":"Point","coordinates":[37.7550372,-122.4264417]}},{"Name":"Nextstop","City":"San Francisco","Latitude":37.7710177,"Longitude":-122.4025976,"Coordinates":{"type":"Point","coordinates":[37.7710177,-122.4025976]}},{"Name":"ArcTouch","City":"San Francisco","Latitude":37.779868,"Longitude":-122.392343,"Coordinates":{"type":"Point","coordinates":[37.779868,-122.392343]}},{"Name":"Fotomoto","City":"San Francisco","Latitude":37.7795014,"Longitude":-122.3948712,"Coordinates":{"type":"Point","coordinates":[37.7795014,-122.3948712]}},{"Name":"Breakaway Communications","City":"San Francisco","Latitude":37.782862,"Longitude":-122.392342,"Coordinates":{"type":"Point","coordinates":[37.782862,-122.392342]}},{"Name":"Canopy Financial","City":"San Francisco","Latitude":37.791388,"Longitude":-122.392148,"Coordinates":{"type":"Point","coordinates":[37.791388,-122.392148]}},{"Name":"AppNinjas","City":"San Francisco","Latitude":37.7983181,"Longitude":-122.4000032,"Coordinates":{"type":"Point","coordinates":[37.7983181,-122.4000032]}},{"Name":"ContinuumGlobal","City":"San Francisco","Latitude":37.7824672,"Longitude":-122.3942549,"Coordinates":{"type":"Point","coordinates":[37.7824672,-122.3942549]}},{"Name":"Marketcetera","City":"San Francisco","Latitude":37.788864,"Longitude":-122.4008487,"Coordinates":{"type":"Point","coordinates":[37.788864,-122.4008487]}},{"Name":"RainStor","City":"San Francisco","Latitude":51.865488,"Longitude":-2.235187,"Coordinates":{"type":"Point","coordinates":[51.865488,-2.235187]}},{"Name":"Playboox","City":"San Francisco","Latitude":37.7870283,"Longitude":-122.4000192,"Coordinates":{"type":"Point","coordinates":[37.7870283,-122.4000192]}},{"Name":"PlantSense","City":"San Francisco","Latitude":37.7697623,"Longitude":-122.4183929,"Coordinates":{"type":"Point","coordinates":[37.7697623,-122.4183929]}},{"Name":"Topsy Labs","City":"San Francisco","Latitude":37.775196,"Longitude":-122.419204,"Coordinates":{"type":"Point","coordinates":[37.775196,-122.419204]}},{"Name":"Five Prime Therapeutics","City":"San Francisco","Latitude":37.7676285,"Longitude":-122.393799,"Coordinates":{"type":"Point","coordinates":[37.7676285,-122.393799]}},{"Name":"Motally","City":"San Francisco","Latitude":37.7818188,"Longitude":-122.3921131,"Coordinates":{"type":"Point","coordinates":[37.7818188,-122.3921131]}},{"Name":"Fliptop","City":"San Francisco","Latitude":37.775206,"Longitude":-122.419209,"Coordinates":{"type":"Point","coordinates":[37.775206,-122.419209]}},{"Name":"Sunrun","City":"San Francisco","Latitude":37.7871306,"Longitude":-122.4041075,"Coordinates":{"type":"Point","coordinates":[37.7871306,-122.4041075]}},{"Name":"sipgate","City":"San Francisco","Latitude":37.7919639,"Longitude":-122.4020588,"Coordinates":{"type":"Point","coordinates":[37.7919639,-122.4020588]}},{"Name":"ACT Biotech","City":"San Francisco","Latitude":37.7871306,"Longitude":-122.4041075,"Coordinates":{"type":"Point","coordinates":[37.7871306,-122.4041075]}},{"Name":"GottaPark","City":"San Francisco","Latitude":37.7868333,"Longitude":-122.4011603,"Coordinates":{"type":"Point","coordinates":[37.7868333,-122.4011603]}},{"Name":"Talent Basket","City":"San Francisco","Latitude":37.775196,"Longitude":-122.419204,"Coordinates":{"type":"Point","coordinates":[37.775196,-122.419204]}},{"Name":"L'Atelier BNP Paribas","City":"San Francisco","Latitude":37.7577648,"Longitude":-122.3882112,"Coordinates":{"type":"Point","coordinates":[37.7577648,-122.3882112]}},{"Name":"Finest Expert","City":"San Francisco","Latitude":37.775196,"Longitude":-122.419204,"Coordinates":{"type":"Point","coordinates":[37.775196,-122.419204]}},{"Name":"Viator","City":"San Francisco","Latitude":37.78671,"Longitude":-122.40084,"Coordinates":{"type":"Point","coordinates":[37.78671,-122.40084]}},{"Name":"Recurrent Energy","City":"San Francisco","Latitude":37.805289,"Longitude":-122.404448,"Coordinates":{"type":"Point","coordinates":[37.805289,-122.404448]}},{"Name":"One Simple Move","City":"San Francisco","Latitude":37.800482,"Longitude":-122.402922,"Coordinates":{"type":"Point","coordinates":[37.800482,-122.402922]}},{"Name":"Informatix Laboratories Corporation","City":"San Francisco","Latitude":37.7923058,"Longitude":-122.4021273,"Coordinates":{"type":"Point","coordinates":[37.7923058,-122.4021273]}},{"Name":"Sticher","City":"San Francisco","Latitude":37.8093381,"Longitude":-122.4166061,"Coordinates":{"type":"Point","coordinates":[37.8093381,-122.4166061]}},{"Name":"Autonomic Technologies","City":"San Francisco","Latitude":37.775196,"Longitude":-122.419204,"Coordinates":{"type":"Point","coordinates":[37.775196,-122.419204]}},{"Name":"Osprey Pharmaceuticals USA","City":"San Francisco","Latitude":37.775196,"Longitude":-122.419204,"Coordinates":{"type":"Point","coordinates":[37.775196,-122.419204]}},{"Name":"UTOPY","City":"San Francisco","Latitude":37.767575,"Longitude":-122.411157,"Coordinates":{"type":"Point","coordinates":[37.767575,-122.411157]}},{"Name":"Siluria Technologies","City":"San Francisco","Latitude":37.4484914,"Longitude":-122.1802812,"Coordinates":{"type":"Point","coordinates":[37.4484914,-122.1802812]}},{"Name":"SuperFan","City":"San Francisco","Latitude":37.790024,"Longitude":-122.404121,"Coordinates":{"type":"Point","coordinates":[37.790024,-122.404121]}},{"Name":"ZoomSystems","City":"San Francisco","Latitude":37.781689,"Longitude":-122.391061,"Coordinates":{"type":"Point","coordinates":[37.781689,-122.391061]}},{"Name":"Exent","City":"San Francisco","Latitude":37.787646,"Longitude":-122.402759,"Coordinates":{"type":"Point","coordinates":[37.787646,-122.402759]}},{"Name":"Scout Labs","City":"San Francisco","Latitude":37.775196,"Longitude":-122.419204,"Coordinates":{"type":"Point","coordinates":[37.775196,-122.419204]}},{"Name":"Mondo Media","City":"San Francisco","Latitude":37.764169,"Longitude":-122.402021,"Coordinates":{"type":"Point","coordinates":[37.764169,-122.402021]}},{"Name":"TwtBks","City":"San Francisco","Latitude":37.7611016,"Longitude":-122.4160008,"Coordinates":{"type":"Point","coordinates":[37.7611016,-122.4160008]}},{"Name":"Quantal","City":"San Francisco","Latitude":37.790947,"Longitude":-122.398634,"Coordinates":{"type":"Point","coordinates":[37.790947,-122.398634]}},{"Name":"TeachScape","City":"San Francisco","Latitude":37.7869047,"Longitude":-122.4043924,"Coordinates":{"type":"Point","coordinates":[37.7869047,-122.4043924]}},{"Name":"Calypso Technology","City":"San Francisco","Latitude":37.789318,"Longitude":-122.400655,"Coordinates":{"type":"Point","coordinates":[37.789318,-122.400655]}},{"Name":"Roc2Loc","City":"San Francisco","Latitude":37.782475,"Longitude":-122.407764,"Coordinates":{"type":"Point","coordinates":[37.782475,-122.407764]}},{"Name":"Danoo","City":"San Francisco","Latitude":37.7888523,"Longitude":-122.4008634,"Coordinates":{"type":"Point","coordinates":[37.7888523,-122.4008634]}},{"Name":"UCWeb","City":"San Francisco","Latitude":37.7814765,"Longitude":-122.4013217,"Coordinates":{"type":"Point","coordinates":[37.7814765,-122.4013217]}},{"Name":"Grassroots","City":"San Francisco","Latitude":37.790346,"Longitude":-122.40185,"Coordinates":{"type":"Point","coordinates":[37.790346,-122.40185]}},{"Name":"DJ Nitrogen","City":"San Francisco","Latitude":37.7841737,"Longitude":-122.4494082,"Coordinates":{"type":"Point","coordinates":[37.7841737,-122.4494082]}},{"Name":"Embarcadero Technologies","City":"San Francisco","Latitude":37.793949,"Longitude":-122.398062,"Coordinates":{"type":"Point","coordinates":[37.793949,-122.398062]}}]